_id,RegionID,SizeRank,RegionName,RegionType,StateName,City,latitude,longitude,2015,2016,2017,2018,2019,2020,2021,2022,2023,2024,2025
67dcb0d77fba7c5360619c8e,394463,3,"Chicago, IL",msa,IL,Chicago,41.8755616,-87.6244212,1418.71,1459.13,1496.61,1532.71,1576.01,1585.56,1634.02,1791.87,1904.71,2005.02,2071.96
67dcb0d77fba7c5360619c8f,753899,2,"Los Angeles, CA",msa,CA,Los Angeles,34.0536909,-118.242766,1865.47,1980.71,2096.29,2196.43,2285.09,2306.8,2442.85,2734.76,2818.81,2892.57,2968.19
67dcb0d77fba7c5360619c90,394692,5,"Houston, TX",msa,TX,Houston,29.7589382,-95.3676974,1233.51,1244.81,1262.74,1309.46,1332.97,1350.59,1435.87,1563.89,1612.7,1648.84,1672.22
67dcb0d77fba7c5360619c91,102001,0,United States,country,,United States,39.7837304,-100.445882,1222.89,1272.73,1324.98,1379.93,1437.58,1473.55,1597.77,1797.54,1874.75,1937.57,1977.5
67dcb0d77fba7c5360619c92,394514,4,"Dallas, TX",msa,TX,Dallas,32.7762719,-96.7968559,1120.56,1176.19,1234.28,1281.26,1330.18,1358.02,1492.13,1689.01,1724.25,1727.49,1739.04
67dcb0d77fba7c5360619c93,394913,1,"New York, NY",msa,NY,New York,40.7127281,-74.0060152,2264.6,2320.26,2360.93,2405.59,2477.63,2388.51,2453.97,2861.41,3011.62,3126.94,3213.41
67dcb0d77fba7c5360619c94,395209,6,"Washington, DC",msa,VA,Washington,38.7129721,-78.1593468,1699.7,1729.49,1768.91,1810.52,1867.04,1874.92,1931.86,2105.94,2189.52,2291.77,2357.88
67dcb0d77fba7c5360619c95,394974,7,"Philadelphia, PA",msa,PA,Philadelphia,39.9527237,-75.1635262,1249.67,1282.75,1321.96,1366.04,1419.08,1460.7,1552.71,1696.92,1760.66,1830.21,1879.5
67dcb0d77fba7c5360619c96,394856,8,"Miami, FL",msa,FL,Miami,25.7741728,-80.19362,1503.6,1558.84,1599.56,1648.67,1698.28,1742.32,2026.33,2491.16,2596.62,2655.23,2692.42
67dcb0d77fba7c5360619c97,394347,9,"Atlanta, GA",msa,GA,Atlanta,33.7489924,-84.3902644,1053.54,1114.05,1184.97,1260.17,1338.07,1401.17,1604.05,1799.67,1840.2,1857.35,1882.04
67dcb0d77fba7c5360619c98,394404,10,"Boston, MA",msa,MA,Boston,42.3554334,-71.060511,2088.5,2170.06,2249.72,2327.55,2406.39,2403.88,2446.42,2714.55,2896.7,3023.8,3094.09
67dcb0d77fba7c5360619c99,394976,11,"Phoenix, AZ",msa,AZ,Phoenix,33.4484367,-112.074141,963.98,1016.6,1078.91,1154.91,1248.46,1341.33,1581.39,1778.38,1786.8,1800.5,1812.21
67dcb0d77fba7c5360619c9a,395057,12,"San Francisco, CA",msa,CA,San Francisco,37.7792588,-122.4193286,2360.36,2501.94,2581.18,2677.22,2758.16,2728.54,2671.62,2869.52,2894.68,2943.62,3019.62
67dcb0d77fba7c5360619c9b,395025,13,"Riverside, CA",msa,CA,Riverside,33.9824949,-117.374238,1355.14,1423.82,1514.41,1607.83,1693.25,1790.99,2083.03,2338.82,2406.11,2480.58,2553.65
67dcb0d77fba7c5360619c9c,394532,14,"Detroit, MI",msa,MI,Detroit,42.3315509,-83.0466403,874.65,905.29,947.87,990.17,1034.37,1082.02,1197.17,1310.68,1355.27,1421.74,1462.33
67dcb0d77fba7c5360619c9d,395078,15,"Seattle, WA",msa,WA,Seattle,47.6038321,-122.330062,1404.82,1511.47,1624.6,1689.76,1760.21,1788.23,1868.65,2078.82,2119.27,2193.27,2239.62
67dcb0d77fba7c5360619c9e,394865,16,"Minneapolis, MN",msa,MN,Minneapolis,44.9772995,-93.2654692,1153.09,1200.21,1261.08,1319.59,1377.59,1409.7,1451.02,1528.24,1569.36,1617.42,1650.12
67dcb0d77fba7c5360619c9f,395056,17,"San Diego, CA",msa,CA,San Diego,32.7174202,-117.162772,1696.65,1792.47,1901.39,2001.98,2079.37,2131.57,2355.7,2727.43,2869.1,2932.29,3008.29
67dcb0d77fba7c5360619ca0,395148,18,"Tampa, FL",msa,FL,Tampa,27.9477595,-82.458444,1098.34,1154.97,1214.8,1280.01,1340.69,1404.13,1646.29,1943.58,2017.24,2056.77,2113.46
67dcb0d77fba7c5360619ca1,394530,19,"Denver, CO",msa,CO,Denver,39.7392364,-104.984862,1293.38,1357.89,1414.76,1472.59,1529.46,1550.6,1659.42,1831.5,1891.02,1927.12,1910.73
67dcb0d77fba7c5360619ca2,394358,20,"Baltimore, MD",msa,MD,Baltimore,39.2908816,-76.610759,1307.56,1324.23,1345.2,1368.59,1402.01,1428.9,1542.43,1671.5,1726.26,1785.45,1835.8
67dcb0d77fba7c5360619ca3,395121,21,"St. Louis, MO",msa,MO,St. Louis,38.6280278,-90.1910154,873.6,894.9,918.02,944.87,977.16,1017.62,1090.01,1198.78,1268.35,1335.36,1381.52
67dcb0d77fba7c5360619ca4,394943,22,"Orlando, FL",msa,FL,Orlando,28.5421109,-81.3790304,1150.78,1208.31,1272.2,1352.61,1416.87,1447.26,1616.35,1901.78,1959.98,1981.33,2001.11
67dcb0d77fba7c5360619ca5,394458,23,"Charlotte, NC",msa,NC,Charlotte,35.2272086,-80.8430827,1047.48,1099.48,1159.84,1213.82,1275.42,1316.45,1459.63,1654.89,1722.7,1746.57,1770.38
67dcb0d77fba7c5360619ca6,395055,24,"San Antonio, TX",msa,TX,San Antonio,29.4246002,-98.4951405,1039.39,1076.81,1113.42,1142.49,1177.5,1203.89,1300.79,1433.71,1451.47,1445.3,1440.99
67dcb0d77fba7c5360619ca7,394998,25,"Portland, OR",msa,OR,Portland,45.5202471,-122.674194,1196.79,1286.7,1348.13,1385.09,1436.3,1466.86,1573.48,1727.53,1763.38,1799.26,1827.69
67dcb0d77fba7c5360619ca8,395045,26,"Sacramento, CA",msa,CA,Sacramento,38.5810606,-121.493895,1287.67,1387.07,1512.72,1609.12,1693.13,1772.48,1977.36,2139.57,2176.83,2249.43,2287.47
67dcb0d77fba7c5360619ca9,394982,27,"Pittsburgh, PA",msa,PA,Pittsburgh,40.4416941,-79.9900861,990.94,1009.88,1030.43,1064.01,1104.61,1141.19,1201.62,1292.77,1348.67,1408.65,1436.12
67dcb0d77fba7c5360619caa,394466,28,"Cincinnati, OH",msa,OH,Cincinnati,39.1014537,-84.5124602,893.28,924.09,967.82,1014.74,1069.63,1125.25,1212.52,1342.25,1433.86,1513.72,1547.63
67dcb0d77fba7c5360619cab,394355,29,"Austin, TX",msa,TX,Austin,30.2711286,-97.7436995,1206.05,1246.19,1279.11,1315.54,1377.63,1396.59,1556.56,1767.59,1755.18,1696.86,1676.43
67dcb0d77fba7c5360619cac,394775,30,"Las Vegas, NV",msa,NV,Las Vegas,36.1672559,-115.148516,999.62,1041.02,1100.79,1178.11,1252.91,1304.56,1526.69,1705.43,1696.0,1735.75,1764.23
67dcb0d77fba7c5360619cad,394735,31,"Kansas City, MO",msa,MO,Kansas City,39.100105,-94.5781416,898.72,932.48,972.1,1008.15,1047.63,1095.89,1176.05,1294.17,1371.72,1445.87,1489.25
67dcb0d77fba7c5360619cae,394492,32,"Columbus, OH",msa,OH,Columbus,39.9622601,-83.0007065,884.24,919.71,964.2,1016.83,1062.15,1110.91,1195.3,1309.24,1380.25,1448.13,1494.34
67dcb0d77fba7c5360619caf,394705,34,"Indianapolis, IN",msa,IN,Indianapolis,39.7683331,-86.1583502,928.52,952.27,983.25,1023.02,1065.42,1125.3,1231.29,1369.47,1442.95,1511.11,1553.43
67dcb0d77fba7c5360619cb0,394475,35,"Cleveland, OH",msa,OH,Cleveland,41.4996574,-81.6936772,853.97,871.93,897.11,928.69,969.56,1018.71,1101.96,1202.08,1268.37,1357.31,1404.04
67dcb0d77fba7c5360619cb1,395059,36,"San Jose, CA",msa,CA,San Jose,37.3361663,-121.890591,2543.41,2641.28,2712.48,2811.82,2882.95,2831.7,2784.04,3043.35,3104.08,3198.55,3269.6
67dcb0d77fba7c5360619cb2,394902,37,"Nashville, TN",msa,TN,Nashville,36.1622767,-86.7742984,1180.03,1242.4,1296.58,1335.15,1383.28,1424.59,1552.95,1766.11,1804.06,1821.9,1842.38
67dcb0d77fba7c5360619cb3,395194,38,"Virginia Beach, VA",msa,VA,Virginia Beach,36.8496579,-75.9760751,1081.27,1092.98,1118.65,1147.24,1186.59,1234.87,1390.82,1528.78,1608.14,1690.33,1743.22
67dcb0d77fba7c5360619cb4,395005,39,"Providence, RI",msa,RI,Providence,41.8239891,-71.4128343,1069.17,1125.07,1180.46,1249.91,1315.68,1387.56,1542.05,1724.47,1854.05,1979.39,2056.61
67dcb0d77fba7c5360619cb5,394714,40,"Jacksonville, FL",msa,FL,Jacksonville,30.3321838,-81.655651,1021.74,1056.76,1101.03,1159.23,1208.89,1258.76,1439.81,1638.98,1677.01,1695.67,1715.14
67dcb0d77fba7c5360619cb6,394862,41,"Milwaukee, WI",msa,WI,Milwaukee,43.0386475,-87.9090751,959.25,979.64,1002.2,1030.87,1065.27,1096.74,1158.65,1249.91,1326.32,1391.8,1434.83
67dcb0d77fba7c5360619cb7,394935,42,"Oklahoma City, OK",msa,OK,Oklahoma City,35.4729886,-97.5170536,935.02,945.3,955.72,978.72,1010.46,1043.31,1136.56,1243.7,1289.3,1334.5,1363.4
67dcb0d77fba7c5360619cb8,395012,43,"Raleigh, NC",msa,NC,Raleigh,35.7803977,-78.6390989,1104.95,1144.23,1186.56,1230.98,1276.76,1317.9,1455.15,1650.97,1698.77,1709.13,1726.86
67dcb0d77fba7c5360619cb9,394849,44,"Memphis, TN",msa,TN,Memphis,35.1460249,-90.0517638,888.88,903.89,921.55,951.59,988.95,1062.36,1198.54,1315.41,1359.07,1406.83,1418.53
67dcb0d77fba7c5360619cba,395022,45,"Richmond, VA",msa,VA,Richmond,37.5385087,-77.43428,976.54,1004.98,1047.51,1096.43,1145.69,1191.25,1304.95,1463.07,1519.48,1598.57,1645.2
67dcb0d77fba7c5360619cbb,394807,46,"Louisville, KY",msa,KY,Louisville,38.2542376,-85.759407,847.56,877.39,921.64,953.47,985.63,1023.92,1083.49,1197.96,1270.85,1351.54,1377.89
67dcb0d77fba7c5360619cbc,394910,47,"New Orleans, LA",msa,LA,New Orleans,29.9759983,-90.0782127,1153.98,1171.32,1184.08,1208.76,1244.96,1281.68,1368.99,1513.37,1547.4,1594.86,1630.62
67dcb0d77fba7c5360619cbd,395053,48,"Salt Lake City, UT",msa,UT,Salt Lake City,40.7596198,-111.886797,987.42,1039.48,1099.69,1165.7,1223.42,1261.37,1408.51,1600.89,1629.79,1655.28,1661.74
67dcb0d77fba7c5360619cbe,394669,49,"Hartford, CT",msa,CT,Hartford,41.764582,-72.6908547,1126.81,1149.9,1177.25,1208.23,1240.63,1287.59,1401.04,1539.58,1653.51,1773.57,1857.72
67dcb0d77fba7c5360619cbf,394425,50,"Buffalo, NY",msa,NY,Buffalo,42.8867166,-78.8783922,796.2,820.48,856.89,888.64,925.21,974.42,1057.03,1159.36,1234.86,1299.84,1330.62
67dcb0d77fba7c5360619cc0,394388,51,"Birmingham, AL",msa,AL,Birmingham,33.5206824,-86.8024326,906.76,923.54,944.89,978.75,1016.18,1055.61,1137.37,1236.84,1295.49,1347.29,1385.54
67dcb0d77fba7c5360619cc1,395031,52,"Rochester, NY",msa,NY,Rochester,43.157285,-77.615214,915.63,946.51,975.05,1011.5,1045.33,1087.72,1185.57,1304.5,1383.21,1456.14,1514.15
67dcb0d77fba7c5360619cc2,394640,53,"Grand Rapids, MI",msa,MI,Grand Rapids,42.9632425,-85.6678639,878.61,953.13,1021.06,1071.65,1124.03,1174.12,1280.09,1423.26,1502.35,1581.02,1620.25
67dcb0d77fba7c5360619cc3,395167,54,"Tucson, AZ",msa,AZ,Tucson,32.2228765,-110.974847,854.07,879.74,924.28,978.38,1046.2,1113.26,1277.66,1442.9,1498.91,1540.4,1553.55
67dcb0d77fba7c5360619cc4,753924,55,"Urban Honolulu, HI",msa,HI,Urban Honolulu,21.304547,-157.855676,2008.18,2047.48,2089.32,2126.05,2178.76,2190.2,2334.9,2496.06,2590.28,2699.52,2778.88
67dcb0d77fba7c5360619cc5,395169,56,"Tulsa, OK",msa,OK,Tulsa,36.1563122,-95.9927516,897.84,908.94,918.23,937.91,965.31,1010.27,1121.01,1246.51,1296.51,1359.41,1388.51
67dcb0d77fba7c5360619cc6,394619,57,"Fresno, CA",msa,CA,Fresno,36.7394421,-119.78483,1045.07,1089.35,1149.59,1218.08,1306.1,1387.72,1612.35,1773.01,1872.19,1944.44,1991.89
67dcb0d77fba7c5360619cc7,395238,58,"Worcester, MA",msa,MA,Worcester,42.2625621,-71.8018877,1084.67,1138.95,1199.31,1271.94,1345.73,1419.03,1540.55,1724.96,1860.95,1989.87,2079.36
67dcb0d77fba7c5360619cc8,394938,59,"Omaha, NE",msa,NE,Omaha,41.2587459,-95.9383758,849.27,879.52,910.73,937.27,971.78,1013.55,1077.27,1175.76,1261.75,1317.15,1358.44
67dcb0d77fba7c5360619cc9,394415,60,"Bridgeport, CT",msa,CT,Bridgeport,41.1792695,-73.1887863,1678.29,1714.74,1759.2,1827.08,1886.78,1971.87,2147.7,2363.58,2476.45,2626.45,2746.67
67dcb0d77fba7c5360619cca,394653,61,"Greenville, SC",msa,SC,Greenville,34.851354,-82.3984882,912.47,955.89,990.91,1038.42,1082.89,1118.85,1227.39,1370.41,1436.41,1492.04,1547.67
67dcb0d77fba7c5360619ccb,394312,62,"Albuquerque, NM",msa,NM,Albuquerque,35.0841034,-106.650985,920.35,942.84,972.2,1004.56,1052.75,1109.26,1262.34,1437.58,1523.33,1578.95,1613.29
67dcb0d77fba7c5360619ccc,394357,63,"Bakersfield, CA",msa,CA,Bakersfield,35.3738712,-119.019463,1004.66,1026.4,1061.23,1106.29,1166.8,1243.04,1402.23,1612.37,1686.54,1762.01,1809.19
67dcb0d77fba7c5360619ccd,394308,64,"Albany, NY",msa,NY,Albany,42.6511674,-73.754968,1035.35,1067.96,1092.48,1134.0,1160.86,1202.82,1286.87,1406.11,1469.26,1545.19,1584.59
67dcb0d77fba7c5360619cce,394753,65,"Knoxville, TN",msa,TN,Knoxville,35.9603948,-83.9210261,888.94,918.02,960.64,1008.22,1064.68,1123.89,1295.33,1530.56,1660.32,1734.87,1775.74
67dcb0d77fba7c5360619ccf,394367,66,"Baton Rouge, LA",msa,LA,Baton Rouge,30.4494155,-91.1869659,1044.16,1081.59,1110.68,1109.4,1109.75,1119.84,1191.07,1286.68,1300.97,1337.69,1359.92
67dcb0d77fba7c5360619cd0,394843,67,"McAllen, TX",msa,TX,McAllen,26.204114,-98.2300605,843.08,850.7,861.69,876.68,898.68,924.77,998.77,1086.45,1132.87,1152.74,1162.27
67dcb0d77fba7c5360619cd1,394908,68,"New Haven, CT",msa,CT,New Haven,41.3082138,-72.9250518,1153.47,1184.67,1214.26,1252.68,1298.52,1353.93,1482.66,1653.31,1782.52,1919.98,1987.87
67dcb0d77fba7c5360619cd2,394561,69,"El Paso, TX",msa,TX,El Paso,31.7601164,-106.4870404,979.45,980.91,990.62,1011.55,1040.86,1101.87,1198.91,1363.05,1451.1,1502.52,1525.43
67dcb0d77fba7c5360619cd3,394318,70,"Allentown, PA",msa,PA,Allentown,40.6022059,-75.4712794,1048.92,1074.45,1114.93,1156.16,1199.0,1264.19,1419.34,1576.97,1648.35,1712.19,1770.65
67dcb0d77fba7c5360619cd4,394952,71,"Oxnard, CA",msa,CA,Oxnard,34.1976308,-119.180381,1830.36,1916.44,2013.68,2116.11,2185.16,2253.37,2494.3,2747.76,2826.69,2948.02,3044.43
67dcb0d77fba7c5360619cd5,394486,72,"Columbia, SC",msa,SC,Columbia,34.0003117,-81.0331309,901.71,928.73,961.01,1001.06,1044.27,1089.04,1201.07,1339.56,1430.98,1501.03,1554.35
67dcb0d77fba7c5360619cd6,753906,73,"North Port, FL",msa,FL,North Port,27.044224,-82.2359254,1282.98,1332.72,1394.28,1440.92,1496.34,1547.81,1828.98,2191.03,2269.35,2281.02,2308.95
67dcb0d77fba7c5360619cd7,845158,74,"Dayton, OH",msa,OH,Dayton,39.7589478,-84.1916069,736.23,762.28,790.08,825.11,865.24,916.18,995.57,1097.71,1166.99,1236.75,1267.55
67dcb0d77fba7c5360619cd8,394457,75,"Charleston, SC",msa,SC,Charleston,32.7884363,-79.9399309,1139.81,1198.29,1255.95,1302.9,1351.96,1383.75,1535.0,1770.24,1911.65,1995.76,2027.31
67dcb0d77fba7c5360619cd9,394648,76,"Greensboro, NC",msa,NC,Greensboro,36.0726355,-79.7919754,838.05,862.27,894.67,930.66,978.96,1035.1,1148.23,1309.48,1390.52,1457.13,1493.05
67dcb0d77fba7c5360619cda,395134,77,"Stockton, CA",msa,CA,Stockton,37.9577016,-121.290779,1311.97,1431.26,1550.32,1657.87,1743.29,1865.43,2116.34,2271.29,2324.03,2411.06,2457.8
67dcb0d77fba7c5360619cdb,394440,78,"Cape Coral, FL",msa,FL,Cape Coral,26.5625742,-81.9438802,1070.32,1153.55,1209.68,1266.98,1310.19,1370.59,1600.85,1972.19,2107.2,2063.46,2031.06
67dcb0d77fba7c5360619cdc,394399,79,"Boise City, ID",msa,ID,Boise City,43.6166163,-116.200886,886.4,945.65,1016.45,1102.85,1188.55,1269.86,1521.96,1662.34,1671.67,1708.9,1742.25
67dcb0d77fba7c5360619cdd,394484,80,"Colorado Springs, CO",msa,CO,Colorado Springs,38.8339578,-104.825348,1058.0,1123.79,1204.45,1277.78,1346.6,1416.61,1579.74,1725.87,1774.82,1811.01,1822.15
67dcb0d77fba7c5360619cde,394798,81,"Little Rock, AR",msa,AR,Little Rock,34.7465071,-92.2896267,819.79,830.63,846.54,859.86,884.52,921.12,1010.26,1092.52,1137.42,1192.18,1206.69
67dcb0d77fba7c5360619cdf,394766,82,"Lakeland, FL",msa,FL,Lakeland,28.0394654,-81.9498042,1036.71,1086.69,1142.91,1214.9,1285.91,1355.31,1535.64,1772.55,1834.09,1863.12,1879.55
67dcb0d77fba7c5360619ce0,394304,83,"Akron, OH",msa,OH,Akron,41.083064,-81.518485,732.71,750.5,774.0,792.21,824.43,864.04,949.71,1054.83,1130.86,1202.48,1235.09
67dcb0d77fba7c5360619ce1,394531,84,"Des Moines, IA",msa,IA,Des Moines,41.5868654,-93.6249494,945.27,962.8,985.13,1001.65,1021.83,1044.69,1083.59,1157.92,1205.6,1242.8,1253.57
67dcb0d77fba7c5360619ce2,395115,85,"Springfield, MA",msa,MA,Springfield,42.1018764,-72.5886727,1077.57,1120.51,1156.44,1207.23,1257.55,1326.63,1429.12,1584.83,1722.34,1839.16,1874.88
67dcb0d77fba7c5360619ce3,845159,86,"Poughkeepsie, NY",msa,NY,Poughkeepsie,41.7065539,-73.9283672,1163.63,1214.45,1272.04,1339.28,1405.91,1516.94,1717.31,1898.23,2001.3,2114.83,2162.34
67dcb0d77fba7c5360619ce4,394931,87,"Ogden, UT",msa,UT,Ogden,41.2230048,-111.9738429,866.71,919.79,981.77,1051.58,1119.77,1189.06,1350.69,1531.9,1591.49,1622.33,1663.17
67dcb0d77fba7c5360619ce5,394816,88,"Madison, WI",msa,WI,Madison,43.074761,-89.3837613,1076.66,1103.1,1139.71,1169.25,1208.22,1244.1,1298.06,1397.27,1535.86,1616.65,1661.7
67dcb0d77fba7c5360619ce6,395235,89,"Winston, NC",msa,NC,Winston,36.0998131,-80.2440518,884.37,910.29,948.79,991.55,1044.07,1104.28,1238.13,1392.86,1468.17,1537.64,1587.72
67dcb0d77fba7c5360619ce7,394528,90,"Deltona, FL",msa,FL,Deltona,28.904843,-81.2273119,1007.04,1069.36,1134.69,1208.81,1276.38,1336.31,1505.72,1756.08,1831.44,1862.8,1888.42
67dcb0d77fba7c5360619ce8,395143,91,"Syracuse, NY",msa,NY,Syracuse,43.0481221,-76.1474244,,984.24,1015.38,1048.58,1084.81,1135.24,1240.43,1377.26,1454.83,1566.57,1620.91
67dcb0d77fba7c5360619ce9,395006,92,"Provo, UT",msa,UT,Provo,40.2337289,-111.6587085,1051.26,1107.15,1169.57,1228.34,1279.2,1323.0,1486.64,1670.47,1717.45,1757.88,1766.48
67dcb0d77fba7c5360619cea,395160,93,"Toledo, OH",msa,OH,Toledo,41.6529143,-83.5378173,706.51,730.23,752.3,776.96,803.24,835.9,920.31,1022.91,1069.56,1133.34,1167.5
67dcb0d77fba7c5360619ceb,395224,94,"Wichita, KS",msa,KS,Wichita,37.6922361,-97.3375448,745.87,754.91,768.32,782.28,803.55,837.11,896.39,972.39,1036.05,1087.88,1105.0
67dcb0d77fba7c5360619cec,394549,95,"Durham, NC",msa,NC,Durham,35.996653,-78.9018053,1042.59,1087.26,1131.55,1179.64,1232.31,1269.01,1382.88,1567.4,1624.16,1650.62,1654.8
67dcb0d77fba7c5360619ced,394352,96,"Augusta, GA",msa,GA,Augusta,33.4709714,-81.9748429,810.77,835.81,862.21,895.92,936.26,999.12,1115.55,1233.59,1305.32,1355.69,1411.18
67dcb0d77fba7c5360619cee,394957,97,"Palm Bay, FL",msa,FL,Palm Bay,27.9946969,-80.6366144,1009.36,1080.57,1166.3,1246.63,1305.26,1363.39,1558.81,1820.39,1890.71,1919.71,1953.27
67dcb0d77fba7c5360619cef,394711,98,"Jackson, MS",msa,MS,Jackson,32.2998686,-90.1830408,,967.67,987.64,1010.32,1033.75,1070.61,1140.55,1234.04,1291.24,1364.26,1418.48
67dcb0d77fba7c5360619cf0,394666,99,"Harrisburg, PA",msa,PA,Harrisburg,40.2663107,-76.8861122,824.7,847.11,870.33,903.75,942.06,988.62,1091.08,1202.4,1260.19,1305.7,1353.13
67dcb0d77fba7c5360619cf1,395113,100,"Spokane, WA",msa,WA,Spokane,47.6571934,-117.42351,758.97,810.3,874.12,948.39,1013.22,1080.99,1286.16,1417.38,1438.76,1474.85,1491.15
67dcb0d77fba7c5360619cf2,395075,101,"Scranton, PA",msa,PA,Scranton,41.4086874,-75.6621294,737.39,761.63,782.94,818.85,860.33,913.24,1035.48,1145.71,1201.38,1268.36,1296.92
67dcb0d77fba7c5360619cf3,394460,102,"Chattanooga, TN",msa,TN,Chattanooga,35.0457219,-85.3094883,849.9,887.09,919.82,973.41,1027.88,1083.81,1220.13,1385.41,1457.09,1507.19,1526.79
67dcb0d77fba7c5360619cf4,394871,103,"Modesto, CA",msa,CA,Modesto,37.6393419,-120.9968892,1007.5,1105.66,1208.37,1292.88,1363.45,1466.81,1645.43,1811.72,1879.88,1963.18,2006.4
67dcb0d77fba7c5360619cf5,394768,104,"Lancaster, PA",msa,PA,Lancaster,40.03813,-76.3056686,781.7,807.41,846.08,886.76,924.82,970.81,1072.79,1181.19,1265.65,1332.19,1384.86
67dcb0d77fba7c5360619cf6,394997,105,"Portland, ME",msa,ME,Portland,43.6573605,-70.2586618,1180.77,1250.61,1303.15,1353.42,1418.74,1510.09,1673.22,1870.56,1977.52,2071.79,2143.05
67dcb0d77fba7c5360619cf7,395245,106,"Youngstown, OH",msa,OH,Youngstown,41.1035786,-80.6520161,581.77,596.3,608.54,629.69,651.64,686.96,771.98,833.07,882.47,944.14,970.91
67dcb0d77fba7c5360619cf8,394770,107,"Lansing, MI",msa,MI,Lansing,42.7338254,-84.5546295,684.6,710.75,740.57,777.01,811.04,854.83,927.45,1021.84,1073.03,1136.46,1179.87
67dcb0d77fba7c5360619cf9,394590,108,"Fayetteville, AR",msa,AR,Fayetteville,36.0625843,-94.1574328,879.14,921.85,968.87,1003.46,1040.14,1082.18,1184.37,1344.23,1444.54,1504.91,1562.05
67dcb0d77fba7c5360619cfa,394589,109,"Fayetteville, NC",msa,NC,Fayetteville,35.0525759,-78.878292,805.31,815.97,834.72,861.34,901.62,962.96,1111.44,1272.75,1343.16,1395.53,1440.94
67dcb0d77fba7c5360619cfb,394792,110,"Lexington, KY",msa,KY,Lexington,38.0464066,-84.4970393,823.4,859.04,889.26,915.46,946.78,976.6,1068.66,1188.83,1276.96,1354.8,1396.64
67dcb0d77fba7c5360619cfc,394971,111,"Pensacola, FL",msa,FL,Pensacola,30.421309,-87.2169149,960.35,1000.49,1046.18,1108.3,1177.57,1259.55,1497.06,1685.12,1724.24,1775.82,1786.88
67dcb0d77fba7c5360619cfd,395068,112,"Santa Rosa, CA",msa,CA,Santa Rosa,38.4404925,-122.7141049,1713.63,1870.03,1976.83,2119.93,2123.84,2156.88,2274.7,2466.81,2538.82,2604.46,2662.31
67dcb0d77fba7c5360619cfe,395019,113,"Reno, NV",msa,NV,Reno,39.5261206,-119.8126581,1026.2,1112.11,1223.2,1355.09,1436.63,1500.96,1699.73,1801.43,1814.76,1864.23,1905.96
67dcb0d77fba7c5360619cff,394698,114,"Huntsville, AL",msa,AL,Huntsville,34.729847,-86.5859011,781.66,801.22,829.62,877.55,946.27,1058.27,1214.45,1330.92,1381.8,1407.7,1423.91
67dcb0d77fba7c5360619d00,394995,115,"Port St. Lucie, FL",msa,FL,Port St. Lucie,27.2939333,-80.3503283,1149.8,1222.91,1304.91,1378.86,1446.98,1517.42,1804.14,2126.92,2221.93,2269.05,2326.52
67dcb0d77fba7c5360619d01,394761,116,"Lafayette, LA",msa,LA,Lafayette,30.2262187,-92.0178202,,981.19,996.89,1001.58,1012.43,1040.53,1127.43,1210.67,1246.84,1282.18,1293.78
67dcb0d77fba7c5360619d02,394898,117,"Myrtle Beach, SC",msa,SC,Myrtle Beach,33.6956461,-78.8900409,996.32,1039.63,1095.67,1149.82,1206.27,1255.89,1408.41,1653.27,1726.78,1783.8,1819.1
67dcb0d77fba7c5360619d03,395116,118,"Springfield, MO",msa,MO,Springfield,37.2081729,-93.2922715,735.3,756.35,783.44,813.16,861.39,916.86,1037.58,1155.35,1208.04,1256.92,1285.96
67dcb0d77fba7c5360619d04,395195,119,"Visalia, CA",msa,CA,Visalia,36.3302284,-119.292058,1018.73,1054.76,1105.25,1145.72,1192.2,1253.8,1447.03,1631.14,1673.19,1755.85,1797.31
67dcb0d77fba7c5360619d05,394746,120,"Killeen, TX",msa,TX,Killeen,31.1171441,-97.727796,846.15,855.13,869.47,890.24,934.29,989.81,1152.16,1303.77,1332.79,1340.85,1354.36
67dcb0d77fba7c5360619d06,394338,121,"Asheville, NC",msa,NC,Asheville,35.595363,-82.5508407,982.5,1038.75,1104.56,1166.91,1223.57,1271.12,1436.37,1657.7,1749.53,1819.82,1827.31
67dcb0d77fba7c5360619d07,395244,122,"York, PA",msa,PA,York,39.962493,-76.7276989,782.6,797.03,824.98,857.41,898.31,936.88,1019.39,1106.65,1171.63,1234.81,1270.77
67dcb0d77fba7c5360619d08,395183,123,"Vallejo, CA",msa,CA,Vallejo,38.1040864,-122.2566367,1450.18,1562.45,1689.5,1795.13,1897.02,1974.99,2136.71,2279.75,2308.45,2381.73,2443.6
67dcb0d77fba7c5360619d09,753917,124,"Santa Maria, CA",msa,CA,Santa Maria,34.9531295,-120.435857,1912.75,2043.26,2135.75,2228.32,2347.6,2462.02,2821.81,3284.33,3401.7,3517.02,3667.39
67dcb0d77fba7c5360619d0a,395050,125,"Salinas, CA",msa,CA,Salinas,36.6744117,-121.655037,1482.5,1624.32,1746.81,1856.34,1943.76,2022.24,2166.95,2364.03,2486.7,2599.12,2709.89
67dcb0d77fba7c5360619d0b,395048,126,"Salem, OR",msa,OR,Salem,44.9391565,-123.033121,875.26,980.78,1066.76,1125.42,1173.9,1224.33,1354.8,1514.52,1592.21,1628.14,1655.45
67dcb0d77fba7c5360619d0c,394870,127,"Mobile, AL",msa,AL,Mobile,30.6913462,-88.0437509,741.05,764.5,788.22,812.82,848.06,872.13,985.66,1093.3,1190.97,1250.34,1275.08
67dcb0d77fba7c5360619d0d,395015,128,"Reading, PA",msa,PA,Reading,40.335345,-75.9279495,745.91,769.32,794.38,829.58,862.46,910.1,1027.8,1138.92,1246.91,1334.87,1412.72
67dcb0d77fba7c5360619d0e,394502,129,"Corpus Christi, TX",msa,TX,Corpus Christi,27.7635302,-97.4033191,1032.87,1045.57,1057.2,1089.72,1105.67,1148.97,1249.67,1325.12,1351.51,1368.63,1392.7
67dcb0d77fba7c5360619d0f,394421,130,"Brownsville, TX",msa,TX,Brownsville,25.9024289,-97.4981698,936.05,950.66,965.23,987.66,1019.82,1060.63,1152.44,1275.19,1367.35,1423.68,1439.4
67dcb0d77fba7c5360619d10,394612,132,"Fort Wayne, IN",msa,IN,Fort Wayne,41.0799898,-85.1386015,692.03,715.9,740.54,776.4,811.42,851.02,943.3,1075.68,1123.59,1184.34,1225.77
67dcb0d77fba7c5360619d11,394820,131,"Manchester, NH",msa,NH,Manchester,42.9956397,-71.4547891,1105.71,1157.23,1209.27,1283.58,1354.43,1428.77,1610.61,1814.34,1930.49,2015.87,2069.62
67dcb0d77fba7c5360619d12,394658,133,"Gulfport, MS",msa,MS,Gulfport,30.3674198,-89.0928155,871.33,895.48,916.62,951.74,988.18,1052.29,1167.15,1306.34,1394.51,1454.9,1500.58
67dcb0d77fba7c5360619d13,395051,134,"Salisbury, MD",msa,DE,Salisbury,35.6709727,-80.4742261,1199.51,1219.68,1242.24,1274.89,1319.49,1383.6,1566.05,1747.36,1825.32,1901.33,1988.91
67dcb0d77fba7c5360619d14,394596,135,"Flint, MI",msa,MI,Flint,43.0161693,-83.6900211,585.23,610.03,632.1,659.23,687.72,723.2,810.43,895.56,909.28,985.13,1018.77
67dcb0d77fba7c5360619d15,394972,136,"Peoria, IL",msa,IL,Peoria,40.6938609,-89.5891008,723.36,728.24,730.36,735.13,756.04,784.46,835.0,908.92,989.88,1068.62,1082.52
67dcb0d77fba7c5360619d16,394439,137,"Canton, OH",msa,OH,Canton,40.7985464,-81.3749508,641.96,650.8,673.62,692.1,720.03,759.19,824.08,915.83,983.83,1053.23,1074.31
67dcb0d77fba7c5360619d17,395070,138,"Savannah, GA",msa,GA,Savannah,32.0790074,-81.0921335,991.29,1022.5,1066.08,1114.55,1160.74,1204.28,1357.52,1611.78,1715.5,1788.14,1806.7
67dcb0d77fba7c5360619d18,394327,139,"Anchorage, AK",msa,AK,Anchorage,61.2163129,-149.894852,1257.17,1243.01,1224.8,1232.58,1244.79,1271.84,1340.25,1472.83,1574.09,1645.58,1686.35
67dcb0d77fba7c5360619d19,394372,140,"Beaumont, TX",msa,TX,Beaumont,30.0860459,-94.1018461,805.7,828.24,878.0,930.77,959.45,1000.02,1045.62,1103.19,1135.05,1207.39,1230.51
67dcb0d77fba7c5360619d1a,395096,141,"Shreveport, LA",msa,LA,Shreveport,32.5135356,-93.7477839,961.18,958.16,965.48,970.96,978.89,1014.01,1089.61,1156.92,1207.52,1250.9,1295.21
67dcb0d77fba7c5360619d1b,395164,142,"Trenton, NJ",msa,NJ,Trenton,40.2203074,-74.7659,1560.57,1603.29,1643.55,1685.9,1732.82,1793.12,1928.05,2154.74,2310.45,2416.41,2505.47
67dcb0d77fba7c5360619d1c,394875,143,"Montgomery, AL",msa,AL,Montgomery,32.37742,-86.3091683,892.26,896.6,910.06,927.46,946.37,983.81,1077.08,1188.5,1237.33,1309.13,1346.32
67dcb0d77fba7c5360619d1d,394520,144,"Davenport, IA",msa,IL,Davenport,39.7341803,-90.2138167,689.14,705.03,714.88,733.46,749.01,770.03,814.34,871.05,907.67,953.65,968.25
67dcb0d77fba7c5360619d1e,395146,145,"Tallahassee, FL",msa,FL,Tallahassee,30.4380832,-84.2809332,897.06,915.46,949.02,985.06,1034.85,1058.63,1146.5,1325.05,1428.76,1493.1,1520.0
67dcb0d77fba7c5360619d1f,394576,146,"Eugene, OR",msa,OR,Eugene,44.0505054,-123.0950506,1021.64,1083.17,1147.53,1225.46,1295.57,1353.48,1484.08,1664.3,1734.44,1800.58,1870.15
67dcb0d77fba7c5360619d20,394901,147,"Naples, FL",msa,FL,Naples,26.1421976,-81.7942944,1497.83,1566.14,1618.39,1703.17,1771.67,1840.9,2188.66,2751.98,2918.39,2953.35,2924.24
67dcb0d77fba7c5360619d21,394332,148,"Ann Arbor, MI",msa,MI,Ann Arbor,42.2813722,-83.7484616,1443.06,1496.22,1569.44,1634.82,1697.61,1715.8,1832.1,2017.69,2119.47,2222.33,2272.91
67dcb0d77fba7c5360619d22,394927,149,"Ocala, FL",msa,FL,Ocala,29.1871986,-82.1400923,811.16,852.39,906.41,961.74,1011.51,1083.98,1257.66,1469.35,1510.83,1535.09,1590.22
67dcb0d77fba7c5360619d23,394679,150,"Hickory, NC",msa,NC,Hickory,35.7333312,-81.3442915,,,,,,,1081.36,1253.07,1310.77,1347.36,1380.06
67dcb0d77fba7c5360619d24,394697,151,"Huntington, WV",msa,OH,Huntington,41.1031097,-82.2209916,,717.96,734.57,748.95,769.62,796.05,831.96,881.29,922.21,968.58,1002.91
67dcb0d77fba7c5360619d25,394602,152,"Fort Collins, CO",msa,CO,Fort Collins,40.5871782,-105.0770113,1240.47,1289.2,1332.09,1384.6,1437.08,1468.36,1570.92,1720.68,1818.85,1884.03,1911.54
67dcb0d77fba7c5360619d26,395033,153,"Rockford, IL",msa,IL,Rockford,42.2713945,-89.093966,707.57,731.96,756.19,783.9,819.82,865.92,943.88,1027.21,1108.8,1197.9,1248.99
67dcb0d77fba7c5360619d27,394796,154,"Lincoln, NE",msa,NE,Lincoln,40.8088861,-96.7077751,,867.39,892.85,925.45,949.46,980.39,1041.92,1130.92,1207.13,1267.01,1295.28
67dcb0d77fba7c5360619d28,394622,155,"Gainesville, FL",msa,FL,Gainesville,29.6519684,-82.3249846,924.64,965.38,1017.04,1071.46,1139.48,1184.75,1309.07,1501.7,1572.13,1613.82,1646.44
67dcb0d77fba7c5360619d29,394405,156,"Boulder, CO",msa,CO,Boulder,40.0149856,-105.270545,1494.12,1560.03,1623.01,1694.48,1756.53,1794.22,1922.14,2103.41,2196.18,2273.21,2316.06
67dcb0d77fba7c5360619d2a,394646,157,"Green Bay, WI",msa,WI,Green Bay,44.5126379,-88.0125794,,,,,,,863.96,967.11,1035.53,1097.49,1121.21
67dcb0d77fba7c5360619d2b,394488,158,"Columbus, GA",msa,GA,Columbus,32.4610708,-84.9880449,765.28,767.36,779.81,796.99,834.66,901.87,1005.73,1116.8,1145.44,1209.46,1229.29
67dcb0d77fba7c5360619d2c,395107,159,"South Bend, IN",msa,IN,South Bend,41.6833813,-86.2500066,672.44,693.99,727.91,768.22,803.87,853.8,975.11,1094.45,1183.28,1241.95,1281.37
67dcb0d77fba7c5360619d2d,395109,160,"Spartanburg, SC",msa,SC,Spartanburg,34.9498007,-81.9320157,889.11,905.39,949.75,1000.11,1048.62,1107.0,1186.34,1302.16,1375.9,1440.28,1458.23
67dcb0d77fba7c5360619d2e,394645,161,"Greeley, CO",msa,CO,Greeley,40.4233142,-104.7091322,1235.58,1279.06,1333.08,1410.37,1474.6,1515.97,1618.07,1758.74,1848.3,1910.16,1970.88
67dcb0d77fba7c5360619d2f,394808,162,"Lubbock, TX",msa,TX,Lubbock,33.5855677,-101.8470215,1009.08,1033.34,1050.01,1069.14,1092.8,1126.91,1202.67,1283.44,1313.61,1341.1,1369.34
67dcb0d77fba7c5360619d30,394471,163,"Clarksville, TN",msa,TN,Clarksville,36.5277607,-87.3588703,819.48,828.85,847.17,882.29,934.8,990.48,1111.89,1246.85,1278.88,1335.25,1354.27
67dcb0d77fba7c5360619d31,395028,164,"Roanoke, VA",msa,VA,Roanoke,37.270973,-79.9414313,816.68,838.57,860.17,883.97,925.82,974.39,1054.37,1213.42,1303.01,1370.28,1443.4
67dcb0d77fba7c5360619d32,394579,165,"Evansville, IN",msa,IN,Evansville,37.970495,-87.5715641,618.23,635.57,654.37,681.41,707.51,734.36,792.81,857.43,922.93,993.43,1030.17
67dcb0d77fba7c5360619d33,394747,167,"Kingsport, TN",msa,TN,Kingsport,36.550238,-82.5594293,,,,,,,963.92,1096.61,1231.65,1310.0,1352.87
67dcb0d77fba7c5360619d34,394741,168,"Kennewick, WA",msa,WA,Kennewick,46.2087066,-119.119919,1007.28,1047.05,1109.54,1152.69,1206.41,1254.15,1399.52,1539.76,1636.58,1681.96,1710.21
67dcb0d77fba7c5360619d35,395179,169,"Utica, NY",msa,NY,Utica,43.1009031,-75.2326641,,,,,,,1167.62,1267.1,1385.9,1495.6,1522.29
67dcb0d77fba7c5360619d36,394660,170,"Hagerstown, MD",msa,MD,Hagerstown,39.6430455,-77.7191081,920.25,937.71,962.02,985.73,1020.4,1072.93,1197.73,1344.2,1432.16,1504.65,1542.03
67dcb0d77fba7c5360619d37,394543,171,"Duluth, MN",msa,MN,Duluth,46.7729322,-92.1251218,1152.73,1151.97,1166.69,1195.27,1224.23,1275.43,1356.83,1464.92,1561.24,1620.82,1678.1
67dcb0d77fba7c5360619d38,394937,172,"Olympia, WA",msa,WA,Olympia,47.0451022,-122.8950075,1123.14,1184.42,1281.63,1368.46,1452.72,1557.3,1754.25,1922.8,1975.74,2045.99,2082.16
67dcb0d77fba7c5360619d39,394803,173,"Longview, TX",msa,TX,Longview,32.5007031,-94.74049,,835.18,844.91,864.29,893.17,931.57,993.81,1104.45,1160.97,1208.93,1241.61
67dcb0d77fba7c5360619d3a,395229,174,"Wilmington, NC",msa,NC,Wilmington,34.2257282,-77.9447107,900.15,936.14,985.13,1040.6,1134.97,1193.34,1335.11,1579.37,1634.78,1660.44,1677.3
67dcb0d77fba7c5360619d3b,395061,175,"San Luis Obispo, CA",msa,CA,San Luis Obispo,35.2827525,-120.659615,1851.69,1982.82,2098.17,2188.77,2268.05,2341.12,2524.81,2785.26,2974.74,3156.57,3229.25
67dcb0d77fba7c5360619d3c,753875,176,"Crestview, FL",msa,FL,Crestview,30.7621326,-86.5705084,1043.1,1078.6,1132.09,1199.93,1303.32,1368.46,1635.93,1861.75,1884.61,1902.46,1943.16
67dcb0d77fba7c5360619d3d,394851,177,"Merced, CA",msa,CA,Merced,37.3029568,-120.4843269,947.47,1031.9,1126.53,1214.61,1293.97,1372.13,1588.95,1761.81,1813.49,1894.76,1974.4
67dcb0d77fba7c5360619d3e,395197,178,"Waco, TX",msa,TX,Waco,31.5491899,-97.1474628,945.64,977.21,1010.08,1047.17,1091.45,1139.56,1243.04,1410.12,1480.85,1519.24,1523.67
67dcb0d77fba7c5360619d3f,394447,179,"Cedar Rapids, IA",msa,IA,Cedar Rapids,41.9758872,-91.6704053,769.52,780.3,792.74,811.77,832.8,862.89,899.12,942.84,998.29,1035.3,1061.39
67dcb0d77fba7c5360619d40,394348,180,"Atlantic City, NJ",msa,NJ,Atlantic City,39.3642852,-74.4229351,1043.57,1065.72,1090.74,1136.01,1175.64,1236.12,1434.96,1701.67,1804.18,1922.48,1997.45
67dcb0d77fba7c5360619d41,394412,181,"Bremerton, WA",msa,WA,Bremerton,47.5653663,-122.6246836,1038.96,1131.45,1226.6,1313.92,1405.98,1460.83,1662.29,1802.64,1795.39,1896.68,1986.28
67dcb0d77fba7c5360619d42,395103,182,"Sioux Falls, SD",msa,SD,Sioux Falls,43.5476008,-96.7293629,,786.81,810.8,828.5,840.81,867.37,934.24,1060.62,1108.53,1132.08,1157.51
67dcb0d77fba7c5360619d43,395065,183,"Santa Cruz, CA",msa,CA,Santa Cruz,36.9743626,-122.0294673,1980.5,2154.11,2283.51,2413.86,2481.14,2534.31,2732.98,3056.28,3169.89,3291.54,3440.15
67dcb0d77fba7c5360619d44,394572,184,"Erie, PA",msa,PA,Erie,42.1294712,-80.0852695,,662.63,680.64,695.33,715.71,733.78,776.75,861.88,933.94,995.64,1035.2
67dcb0d77fba7c5360619d45,394924,185,"Norwich, CT",msa,CT,Norwich,41.5243537,-72.0759008,975.21,1004.09,1027.34,1046.7,1085.67,1152.1,1276.4,1417.34,1542.9,1682.56,1754.84
67dcb0d77fba7c5360619d46,394323,186,"Amarillo, TX",msa,TX,Amarillo,35.20729,-101.8371192,,960.99,965.36,980.13,1002.04,1034.91,1111.58,1217.15,1261.08,1298.99,1329.91
67dcb0d77fba7c5360619d47,394772,187,"Laredo, TX",msa,TX,Laredo,27.5075005,-99.5069922,,,914.77,946.31,966.87,981.51,1027.94,1130.13,1187.24,1255.93,1258.54
67dcb0d77fba7c5360619d48,395171,188,"Tuscaloosa, AL",msa,AL,Tuscaloosa,33.2095614,-87.5675258,,939.07,970.59,994.05,1035.37,1081.29,1137.6,1241.05,1334.62,1418.52,1488.19
67dcb0d77fba7c5360619d49,394483,189,"College Station, TX",msa,TX,College Station,30.6183939,-96.3455991,1159.95,1203.21,1234.0,1239.74,1273.55,1307.04,1382.27,1501.44,1600.94,1684.92,1728.39
67dcb0d77fba7c5360619d4a,394732,190,"Kalamazoo, MI",msa,MI,Kalamazoo,42.291707,-85.5872286,767.38,799.55,835.42,883.87,929.05,964.3,1040.65,1140.01,1179.81,1238.11,1289.23
67dcb0d77fba7c5360619d4b,394811,191,"Lynchburg, VA",msa,VA,Lynchburg,37.4137536,-79.1422464,786.25,814.16,837.46,860.04,894.65,940.79,1029.12,1192.12,1264.97,1310.82,1334.68
67dcb0d77fba7c5360619d4c,394455,192,"Charleston, WV",msa,WV,Charleston,38.3505995,-81.6332812,,675.91,683.76,701.94,713.99,735.76,762.98,807.33,850.35,907.2,956.8
67dcb0d77fba7c5360619d4d,395240,193,"Yakima, WA",msa,WA,Yakima,46.601557,-120.510842,,,,,,,,1190.57,1252.23,1319.38,1350.4
67dcb0d77fba7c5360619d4e,394585,194,"Fargo, ND",msa,ND,Fargo,46.877229,-96.789821,,856.7,863.27,867.73,884.76,907.96,942.18,1002.05,1062.05,1123.7,1139.63
67dcb0d77fba7c5360619d4f,394387,195,"Binghamton, NY",msa,NY,Binghamton,42.098698,-75.9125187,,,,673.62,716.36,769.3,850.82,957.1,1058.31,1164.79,1224.06
67dcb0d77fba7c5360619d50,394609,196,"Fort Smith, AR",msa,AR,Fort Smith,35.3880338,-94.4265011,651.73,662.47,672.89,682.73,697.47,729.12,800.57,887.52,944.2,982.98,1005.72
67dcb0d77fba7c5360619d51,394334,197,"Appleton, WI",msa,WI,Appleton,44.2613967,-88.4069744,,,,,,,,1115.91,1191.99,1256.49,1311.66
67dcb0d77fba7c5360619d52,845160,198,"Prescott Valley, AZ",msa,AZ,Prescott Valley,34.5950776,-112.3338634,986.5,1048.61,1119.57,1198.29,1268.48,1342.56,1559.16,1758.18,1803.65,1850.98,1889.07
67dcb0d77fba7c5360619d53,395161,199,"Topeka, KS",msa,KS,Topeka,39.049011,-95.677556,696.76,717.76,723.88,744.81,779.38,800.53,861.4,955.96,1023.78,1081.53,1131.94
67dcb0d77fba7c5360619d54,394813,200,"Macon, GA",msa,GA,Macon,32.8406946,-83.6324022,,692.36,710.27,745.76,781.55,832.83,967.82,1064.28,1135.08,1190.21,1214.08
67dcb0d77fba7c5360619d55,395174,201,"Tyler, TX",msa,TX,Tyler,32.3512601,-95.3010624,,1068.53,1090.71,1112.24,1144.07,1163.32,1281.01,1421.49,1472.71,1493.95,1514.32
67dcb0d77fba7c5360619d56,394361,202,"Barnstable Town, MA",msa,MA,Barnstable Town,41.674071,-70.359295,,,,,1683.77,1916.56,2124.59,2380.88,2579.42,2760.25,2785.3
67dcb0d77fba7c5360619d57,394519,203,"Daphne, AL",msa,AL,Daphne,30.6035255,-87.9036047,1004.93,1035.08,1072.39,1097.4,1143.97,1192.59,1382.22,1532.34,1580.58,1604.62,1613.29
67dcb0d77fba7c5360619d58,395030,207,"Rochester, MN",msa,MN,Rochester,44.0234387,-92.4630182,1094.91,1128.85,1165.04,1193.95,1244.51,1263.29,1322.5,1429.58,1491.05,1538.91,1591.37
67dcb0d77fba7c5360619d59,394378,205,"Bellingham, WA",msa,WA,Bellingham,48.7544012,-122.478836,1009.55,1081.02,1169.25,1265.65,1350.47,1432.53,1580.16,1757.06,1861.46,1926.77,1978.51
67dcb0d77fba7c5360619d5a,394429,206,"Burlington, VT",msa,VT,Burlington,44.4761601,-73.212906,,1254.89,1333.92,1380.44,1413.74,1456.8,1562.04,1749.62,1892.95,1988.75,2034.09
67dcb0d77fba7c5360619d5b,753895,208,"Lafayette, IN",msa,IN,Lafayette,40.4191229,-86.8919011,864.17,882.33,914.68,950.3,993.71,1033.88,1093.62,1220.38,1341.69,1438.04,1463.65
67dcb0d77fba7c5360619d5c,394848,210,"Medford, OR",msa,OR,Medford,42.3264181,-122.8718605,940.03,1043.67,1134.07,1196.8,1250.08,1320.84,1457.49,1549.64,1610.13,1682.0,1757.74
67dcb0d77fba7c5360619d5d,394454,209,"Champaign, IL",msa,IL,Champaign,40.1164841,-88.2430932,836.23,843.87,865.83,885.38,918.06,934.53,980.11,1073.99,1133.41,1210.99,1253.68
67dcb0d77fba7c5360619d5e,845164,211,"Lebanon, NH",msa,NH,Lebanon,43.643032,-72.251587,,913.83,964.94,1010.06,1064.17,1157.36,1239.02,1393.6,1526.94,1617.33,1689.06
67dcb0d77fba7c5360619d5f,394459,212,"Charlottesville, VA",msa,VA,Charlottesville,38.029306,-78.4766781,1154.96,1202.75,1256.37,1314.43,1367.11,1414.46,1517.07,1666.07,1766.08,1867.28,1921.3
67dcb0d77fba7c5360619d60,394763,213,"Lake Charles, LA",msa,LA,Lake Charles,30.2305095,-93.2169807,,870.1,914.13,935.7,910.7,889.79,1092.13,993.56,964.68,994.09,1031.97
67dcb0d77fba7c5360619d61,394773,214,"Las Cruces, NM",msa,NM,Las Cruces,32.3140354,-106.779807,812.34,830.49,851.42,877.45,912.69,969.02,1071.19,1207.78,1296.23,1343.98,1363.22
67dcb0d77fba7c5360619d62,394464,215,"Chico, CA",msa,CA,Chico,39.7284945,-121.8374777,1015.84,1068.07,1123.38,1179.75,1297.34,1337.84,1428.41,1524.99,1568.89,1620.6,1649.75
67dcb0d77fba7c5360619d63,394681,216,"Hilton Head Island, SC",msa,SC,Hilton Head Island,32.1618488,-80.7512616,1126.6,1180.22,1247.43,1306.45,1362.64,1406.41,1599.09,1927.21,2027.05,2080.44,2107.09
67dcb0d77fba7c5360619d64,394346,217,"Athens, GA",msa,GA,Athens,33.9597677,-83.376398,878.85,928.77,982.88,1076.62,1156.97,1241.1,1374.9,1546.12,1699.35,1794.73,1846.27
67dcb0d77fba7c5360619d65,394765,218,"Lake Havasu City, AZ",msa,AZ,Lake Havasu City,34.4775296,-114.3379972,850.13,894.06,952.66,1019.49,1102.55,1193.24,1394.88,1552.29,1595.26,1656.84,1688.66
67dcb0d77fba7c5360619d66,394485,219,"Columbia, MO",msa,MO,Columbia,38.951883,-92.3337366,757.9,766.63,778.56,796.21,817.83,846.2,907.78,1026.71,1118.46,1209.73,1273.88
67dcb0d77fba7c5360619d67,394691,221,"Houma, LA",msa,LA,Houma,29.5957696,-90.7195348,,,,,,,,1239.94,1327.89,1340.51,1377.74
67dcb0d77fba7c5360619d68,394565,223,"Elkhart, IN",msa,IN,Elkhart,41.6819935,-85.9766671,,,,,,,908.41,993.56,1027.78,1061.28,1093.66
67dcb0d77fba7c5360619d69,395114,220,"Springfield, IL",msa,IL,Springfield,39.7990175,-89.6439575,,752.69,766.19,780.44,803.63,828.44,878.96,962.23,1033.21,1106.32,1130.36
67dcb0d77fba7c5360619d6a,394872,222,"Monroe, LA",msa,LA,Monroe,32.5025471,-92.116219,,,,,,,,922.22,943.53,963.93,989.41
67dcb0d77fba7c5360619d6b,395247,225,"Yuma, AZ",msa,AZ,Yuma,32.665135,-114.47603157249804,,,,,,,1217.41,1280.13,1345.44,1387.41,1430.23
67dcb0d77fba7c5360619d6c,394726,224,"Johnson City, TN",msa,TN,Johnson City,36.3134398,-82.3534728,,821.54,846.67,870.26,908.22,953.19,1062.94,1244.72,1341.89,1422.93,1482.52
67dcb0d77fba7c5360619d6d,394623,226,"Gainesville, GA",msa,GA,Gainesville,34.2978794,-83.8240663,980.77,1048.79,1103.39,1169.92,1242.16,1295.41,1501.18,1697.29,1771.18,1819.09,1817.16
67dcb0d77fba7c5360619d6e,394716,227,"Jacksonville, NC",msa,NC,Jacksonville,34.7494749,-77.4208221,819.41,818.24,828.82,857.96,936.09,969.25,1077.23,1270.71,1332.4,1380.35,1410.27
67dcb0d77fba7c5360619d6f,394597,228,"Florence, SC",msa,SC,Florence,34.1984435,-79.7671658,,,,,1040.67,1087.05,1177.06,1309.28,1388.11,1472.64,1514.59
67dcb0d77fba7c5360619d70,394680,229,"Hilo, HI",msa,HI,Hilo,19.7073734,-155.08158,,,,,,,1885.63,2049.75,2198.59,2352.13,2469.1
67dcb0d77fba7c5360619d71,395118,230,"St. Cloud, MN",msa,MN,St. Cloud,45.5616075,-94.1642004,833.94,857.14,889.43,940.56,984.75,1022.24,1080.94,1200.62,1245.11,1276.51,1340.25
67dcb0d77fba7c5360619d72,395011,231,"Racine, WI",msa,WI,Racine,42.7313756,-87.7834769,,,,,883.56,917.52,978.06,1067.33,1142.54,1182.75,1225.64
67dcb0d77fba7c5360619d73,395047,233,"Saginaw, MI",msa,MI,Saginaw,43.4200387,-83.9490365,,,,,,,768.62,847.25,889.58,969.04,1002.14
67dcb0d77fba7c5360619d74,394380,232,"Bend, OR",msa,OR,Bend,44.0581728,-121.3153096,1184.5,1288.29,1368.27,1414.68,1507.1,1630.57,1964.78,2063.25,2096.72,2147.51,2156.18
67dcb0d77fba7c5360619d75,395151,235,"Terre Haute, IN",msa,IN,Terre Haute,39.4667025,-87.4139119,,,,,,,707.91,778.29,813.46,867.61,892.63
67dcb0d77fba7c5360619d76,395202,234,"Warner Robins, GA",msa,GA,Warner Robins,32.6200973,-83.606568,848.55,871.4,897.82,930.97,974.23,1032.19,1151.8,1319.34,1414.22,1480.37,1524.64
67dcb0d77fba7c5360619d77,395162,236,"Torrington, CT",msa,CT,Torrington,41.8006523,-73.1212214,785.87,801.72,838.52,871.4,899.53,1001.83,1154.08,1280.39,1413.19,1556.17,1666.98
67dcb0d77fba7c5360619d78,395009,237,"Punta Gorda, FL",msa,FL,Punta Gorda,26.9351529,-82.0512058,1069.68,1135.65,1192.98,1245.19,1298.19,1374.09,1580.82,1916.72,2045.73,2023.61,1996.34
67dcb0d77fba7c5360619d79,394386,239,"Billings, MT",msa,MT,Billings,45.7874957,-108.49607,853.35,868.38,881.96,898.36,927.52,978.0,1100.92,1237.3,1309.93,1354.99,1363.42
67dcb0d77fba7c5360619d7a,395018,240,"Redding, CA",msa,CA,Redding,40.5863563,-122.391675,870.7,899.02,933.9,985.31,1055.45,1120.8,1227.55,1342.54,1400.68,1460.14,1523.75
67dcb0d77fba7c5360619d7b,394748,241,"Kingston, NY",msa,NY,Kingston,41.9287812,-74.0023702,,1062.83,1144.78,1222.1,1281.75,1437.24,1658.57,1820.8,1858.96,1948.64,1977.26
67dcb0d77fba7c5360619d7c,394960,242,"Panama City, FL",msa,FL,Panama City,30.1586518,-85.6602936,934.2,965.9,1001.23,1082.93,1350.67,1315.85,1470.85,1644.25,1669.66,1687.03,1703.89
67dcb0d77fba7c5360619d7d,394729,243,"Joplin, MO",msa,MO,Joplin,37.0841838,-94.5133385,,,,,,,902.86,959.82,1027.21,1067.28,1113.86
67dcb0d77fba7c5360619d7e,394539,244,"Dover, DE",msa,DE,Dover,39.158168,-75.5243682,1051.42,1076.16,1101.41,1140.37,1175.44,1225.54,1422.36,1553.01,1629.31,1712.72,1702.08
67dcb0d77fba7c5360619d7f,394559,245,"El Centro, CA",msa,CA,El Centro,32.792,-115.563051,,,,,,,,,1572.62,1705.28,1831.38
67dcb0d77fba7c5360619d80,394712,246,"Jackson, TN",msa,TN,Jackson,35.6144446,-88.8177418,,,,,,,1005.1,1090.73,1192.23,1288.22,1355.86
67dcb0d77fba7c5360619d81,395246,247,"Yuba City, CA",msa,CA,Yuba City,39.1404477,-121.6169108,1018.69,1055.91,1141.52,1215.57,1320.6,1414.83,1621.54,1770.82,1816.98,1904.36,1953.44
67dcb0d77fba7c5360619d82,394406,248,"Bowling Green, KY",msa,KY,Bowling Green,36.9903199,-86.4436018,,,894.42,881.56,905.36,931.55,1000.34,1119.37,1169.95,1220.04,1268.32
67dcb0d77fba7c5360619d83,395119,249,"St. George, UT",msa,UT,St. George,37.104153,-113.584131,1049.27,1115.27,1200.69,1274.66,1327.94,1386.67,1575.53,1731.45,1778.08,1803.12,1852.9
67dcb0d77fba7c5360619d84,394299,251,"Abilene, TX",msa,TX,Abilene,32.44645,-99.7475905,815.89,830.24,860.13,893.1,931.26,979.55,1067.41,1160.14,1225.51,1264.37,1319.58
67dcb0d77fba7c5360619d85,394896,250,"Muskegon, MI",msa,MI,Muskegon,43.2341813,-86.2483921,,,,,,,990.07,1078.68,1125.42,1207.05,1266.87
67dcb0d77fba7c5360619d86,394555,258,"Eau Claire, WI",msa,WI,Eau Claire,44.811349,-91.4984941,,,,,,,,983.0,1058.24,1097.31,1117.34
67dcb0d77fba7c5360619d87,394428,260,"Burlington, NC",msa,NC,Burlington,36.0956918,-79.4377991,701.98,727.16,766.01,818.34,881.66,933.44,1057.91,1218.27,1296.0,1375.99,1435.14
67dcb0d77fba7c5360619d88,394651,259,"Greenville, NC",msa,NC,Greenville,35.613224,-77.3724593,862.55,890.89,919.98,968.06,1015.78,1071.3,1172.22,1323.0,1435.44,1511.25,1551.18
67dcb0d77fba7c5360619d89,394860,254,"Midland, TX",msa,TX,Midland,31.9973662,-102.077948,,1109.75,1236.12,1497.07,1567.27,1353.88,1210.05,1317.37,1488.52,1564.44,1601.53
67dcb0d77fba7c5360619d8a,394480,262,"Coeur d'Alene, ID",msa,ID,Coeur d'Alene,47.6742994,-116.7811531,,,1014.69,1083.74,1160.56,1261.8,1577.92,1733.98,1706.44,1753.41,1774.7
67dcb0d77fba7c5360619d8b,394553,263,"East Stroudsburg, PA",msa,PA,East Stroudsburg,40.9995386,-75.1812913,970.89,995.41,1045.87,1101.86,1155.56,1254.8,1453.46,1651.02,1749.99,1830.48,1849.71
67dcb0d77fba7c5360619d8c,395007,264,"Pueblo, CO",msa,CO,Pueblo,38.263995,-104.6141867,780.02,823.58,876.65,920.41,973.52,1053.45,1176.06,1290.52,1339.97,1380.56,1380.4
67dcb0d77fba7c5360619d8d,394392,265,"Blacksburg, VA",msa,VA,Blacksburg,37.2296566,-80.4136767,,,,1043.33,1114.32,1200.71,1277.55,1391.36,1513.34,1610.26,1669.36
67dcb0d77fba7c5360619d8e,395215,266,"Wausau, WI",msa,WI,Wausau,44.9597858,-89.6272791,,,,,,,,845.0,885.35,906.22,944.07
67dcb0d77fba7c5360619d8f,394731,267,"Kahului, HI",msa,HI,Kahului,20.8894101,-156.4727118,,,,,,2279.78,2741.49,3174.84,3375.22,3698.93,3671.61
67dcb0d77fba7c5360619d90,394707,252,"Iowa City, IA",msa,IA,Iowa City,41.6612561,-91.5299106,964.61,948.52,982.06,997.47,1007.75,1017.62,1057.5,1108.73,1162.96,1214.3,1247.61
67dcb0d77fba7c5360619d91,395210,261,"Waterloo, IA",msa,IA,Waterloo,42.498275,-92.3328743,,823.14,846.8,864.71,885.04,902.9,949.53,998.99,1049.5,1106.26,1145.85
67dcb0d77fba7c5360619d92,394351,253,"Auburn, AL",msa,AL,Auburn,32.6098566,-85.4807825,,974.59,1009.66,1060.13,1109.07,1132.79,1206.56,1312.29,1412.17,1527.87,1616.08
67dcb0d77fba7c5360619d93,394671,255,"Hattiesburg, MS",msa,MS,Hattiesburg,31.3271189,-89.2903392,,,,,,,,1098.93,1150.1,1221.04,1310.42
67dcb0d77fba7c5360619d94,753869,255,"Bloomington, IL",msa,IL,Bloomington,40.4797828,-88.9939147,,753.83,768.1,778.59,807.89,845.25,919.38,1069.29,1152.76,1261.0,1278.39
67dcb0d77fba7c5360619d95,394720,268,"Janesville, WI",msa,WI,Janesville,42.6829765,-89.0226793,,,,,,,,963.71,1029.21,1093.12,1146.32
67dcb0d77fba7c5360619d96,394944,257,"Oshkosh, WI",msa,WI,Oshkosh,44.0206919,-88.5408574,,632.74,664.63,699.69,737.77,781.61,855.58,934.94,998.18,1058.56,1104.04
67dcb0d77fba7c5360619d97,395170,269,"Tupelo, MS",msa,MS,Tupelo,34.2576067,-88.7033859,,,,,,,1094.32,1191.7,1261.8,1327.68,1356.27
67dcb0d77fba7c5360619d98,394393,270,"Bloomington, IN",msa,IN,Bloomington,39.1670396,-86.5342881,910.96,929.51,968.12,1005.84,1060.21,1100.29,1176.58,1310.34,1378.87,1439.81,1471.34
67dcb0d77fba7c5360619d99,394930,271,"Odessa, TX",msa,TX,Odessa,31.8457149,-102.367687,,,1241.52,1422.81,1521.95,1313.62,1207.08,1321.81,1498.73,1553.79,1559.34
67dcb0d77fba7c5360619d9a,394710,272,"Jackson, MI",msa,MI,Jackson,42.2465036,-84.4016963,,577.12,620.13,632.05,669.72,712.65,781.15,858.94,943.22,992.85,1056.93
67dcb0d77fba7c5360619d9b,395125,273,"State College, PA",msa,PA,State College,40.7944504,-77.8616386,,,,,1278.98,1304.29,1371.76,1461.59,1553.4,1622.46,1661.43
67dcb0d77fba7c5360619d9c,394814,275,"Madera, CA",msa,CA,Madera,36.9622745,-120.0594685,,,,,,,,2080.38,2177.13,2281.58,2273.71
67dcb0d77fba7c5360619d9d,394523,276,"Decatur, AL",msa,AL,Decatur,34.6060203,-86.9838165,,,,,,,,1115.94,1214.72,1293.78,1323.02
67dcb0d77fba7c5360619d9e,394453,277,"Chambersburg, PA",msa,PA,Chambersburg,39.9375112,-77.6612586,731.61,756.71,771.74,795.68,824.65,866.09,964.86,1054.17,1129.47,1197.05,1244.18
67dcb0d77fba7c5360619d9f,395193,278,"Vineland, NJ",msa,NJ,Vineland,39.4862777,-75.0254256,,,,,,,,,1659.93,1700.45,1812.63
67dcb0d77fba7c5360619da0,394703,279,"Idaho Falls, ID",msa,ID,Idaho Falls,43.4887907,-112.03628,642.08,670.9,718.65,771.97,829.42,897.85,1069.0,1204.38,1225.6,1264.2,1278.14
67dcb0d77fba7c5360619da1,394639,280,"Grand Junction, CO",msa,CO,Grand Junction,39.0672568,-108.56448,875.7,900.91,942.07,1008.26,1079.46,1136.94,1267.37,1416.83,1490.5,1592.61,1667.18
67dcb0d77fba7c5360619da2,394563,281,"Elizabethtown, KY",msa,KY,Elizabethtown,37.693952,-85.8591285,,,,,,,,1151.15,1337.39,1448.03,1426.72
67dcb0d77fba7c5360619da3,395079,274,"Sebastian, FL",msa,FL,Sebastian,27.816415,-80.4706078,1011.2,1093.81,1194.31,1274.07,1344.88,1449.68,1691.85,2019.8,2162.6,2247.31,2314.55
67dcb0d77fba7c5360619da4,394873,283,"Monroe, MI",msa,MI,Monroe,41.9145037,-83.3968252,,,,,,,1168.07,1255.35,1279.27,1367.59,1387.9
67dcb0d77fba7c5360619da5,394493,285,"Concord, NH",msa,NH,Concord,43.207178,-71.537476,,,,,,,,1575.42,1749.48,1865.8,1976.56
67dcb0d77fba7c5360619da6,394917,282,"Niles, MI",msa,MI,Niles,41.8297694,-86.2541768,,,,761.73,780.17,813.95,876.61,969.99,1042.12,1099.08,1158.85
67dcb0d77fba7c5360619da7,394314,286,"Alexandria, LA",msa,LA,Alexandria,31.3119463,-92.4453558,,,,,,,,,1211.49,1252.74,1286.7
67dcb0d77fba7c5360619da8,395163,287,"Traverse City, MI",msa,MI,Traverse City,44.7606481,-85.6165976,,,,,,,,1603.37,1736.46,1849.32,1847.77
67dcb0d77fba7c5360619da9,395066,284,"Santa Fe, NM",msa,NM,Santa Fe,35.6876096,-105.938456,,1136.06,1232.86,1318.67,1429.65,1483.35,1624.12,1837.21,1975.43,2034.41,2074.43
67dcb0d77fba7c5360619daa,394662,290,"Hanford, CA",msa,CA,Hanford,36.3277959,-119.6461565,,,,,,,,1742.3,1834.95,1903.21,1969.87
67dcb0d77fba7c5360619dab,394685,289,"Homosassa Springs, FL",msa,FL,Homosassa Springs,28.8035939,-82.5759329,,840.85,919.94,986.5,1020.79,1082.17,1248.13,1420.32,1529.17,1587.76,1667.76
67dcb0d77fba7c5360619dac,394359,288,"Bangor, ME",msa,ME,Bangor,44.8016255,-68.7713289,,,973.67,1001.95,1040.58,1096.81,1214.54,1355.4,1435.45,1522.3,1541.76
67dcb0d77fba7c5360619dad,394723,291,"Jefferson City, MO",msa,MO,Jefferson City,38.577359,-92.1724265,,,,,,,,,828.99,884.79,957.44
67dcb0d77fba7c5360619dae,394537,293,"Dothan, AL",msa,AL,Dothan,31.2237285,-85.3934375,,,,,,,,1115.89,1148.9,1206.64,1244.41
67dcb0d77fba7c5360619daf,394306,295,"Albany, GA",msa,GA,Albany,31.5782062,-84.1556809,,,657.29,676.18,710.23,761.99,850.32,952.58,997.84,1048.39,1055.32
67dcb0d77fba7c5360619db0,394598,292,"Florence, AL",msa,AL,Florence,34.79981,-87.677251,,,,,,751.02,806.09,913.5,1005.04,1064.41,1122.82
67dcb0d77fba7c5360619db1,395102,297,"Sioux City, IA",msa,IA,Sioux City,42.4966815,-96.4058782,,,,,,,,1062.28,1109.83,1186.61,1241.02
67dcb0d77fba7c5360619db2,845167,296,"Ottawa, IL",msa,IL,Ottawa,41.3516628,-88.845436,,,,,,,,,,1031.48,1039.27
67dcb0d77fba7c5360619db3,395152,299,"Texarkana, TX",msa,TX,Texarkana,33.44667445,-94.07714830522016,,,,,,,1046.21,1142.58,1222.64,1292.23,1340.83
67dcb0d77fba7c5360619db4,395223,298,"Wichita Falls, TX",msa,TX,Wichita Falls,33.9004572,-98.5020777,673.95,689.37,715.19,744.42,779.77,833.41,928.84,1039.28,1098.75,1145.58,1174.4
67dcb0d77fba7c5360619db5,395000,304,"Pottsville, PA",msa,PA,Pottsville,40.6851324,-76.1953701,,,,,,,,962.98,1021.71,1103.52,1151.35
67dcb0d77fba7c5360619db6,394595,302,"Flagstaff, AZ",msa,AZ,Flagstaff,35.1987522,-111.651822,,,,1426.83,1474.61,1560.5,1767.46,2050.76,2137.61,2199.49,2255.14
67dcb0d77fba7c5360619db7,395036,303,"Rocky Mount, NC",msa,NC,Rocky Mount,35.9423833,-77.7956949,,,,,,,,1086.79,1194.47,1293.68,1321.27
67dcb0d77fba7c5360619db8,394783,306,"Lebanon, PA",msa,PA,Lebanon,40.3429683,-76.4233816,,,,,,,1014.32,1132.9,1243.26,1325.68,1355.03
67dcb0d77fba7c5360619db9,394515,305,"Dalton, GA",msa,GA,Dalton,34.7691867,-84.9702475,,,,,,,,,1420.06,1472.13,1528.62
67dcb0d77fba7c5360619dba,395232,308,"Winchester, VA",msa,VA,Winchester,39.1852184,-78.1652404,1123.64,1147.73,1187.25,1238.25,1287.49,1353.0,1497.66,1663.31,1762.45,1878.55,1940.94
67dcb0d77fba7c5360619dbb,394880,307,"Morristown, TN",msa,TN,Morristown,36.2139814,-83.2948923,,,,,,,,1373.12,1459.69,1596.64,1580.36
67dcb0d77fba7c5360619dbc,395182,300,"Valdosta, GA",msa,GA,Valdosta,30.8327022,-83.2784851,,,,,,976.55,1062.03,1229.63,1272.87,1342.5,1402.14
67dcb0d77fba7c5360619dbd,394879,310,"Morgantown, WV",msa,WV,Morgantown,39.6296809,-79.9559437,,888.1,915.52,920.39,933.78,962.34,1006.41,1074.03,1116.84,1155.29,1192.0
67dcb0d77fba7c5360619dbe,394800,301,"Logan, UT",msa,UT,Logan,41.7313063,-111.834914,,,,,,,,1426.73,1514.26,1565.98,1529.81
67dcb0d77fba7c5360619dbf,394900,312,"Napa, CA",msa,CA,Napa,38.2971367,-122.2855293,,2016.39,2105.3,2240.66,2319.27,2397.76,2568.21,2788.92,2865.22,2925.53,2967.87
67dcb0d77fba7c5360619dc0,395013,313,"Rapid City, SD",msa,SD,Rapid City,44.0806041,-103.228023,,,869.78,884.69,899.29,930.26,1031.3,1216.49,1233.07,1274.34,1316.83
67dcb0d77fba7c5360619dc1,394756,311,"La Crosse, WI",msa,WI,La Crosse,43.8122836,-91.2514355,,,,,,,894.59,941.16,1032.28,1083.65,1116.09
67dcb0d77fba7c5360619dc2,395139,314,"Sumter, SC",msa,SC,Sumter,33.9204354,-80.3414693,817.28,849.21,874.67,914.46,946.17,1001.86,1083.08,1209.22,1301.25,1388.26,1434.16
67dcb0d77fba7c5360619dc3,395221,309,"Wheeling, WV",msa,OH,Wheeling,40.0609059,-80.7423051,,,,709.9,716.77,714.6,726.78,750.54,790.94,832.06,828.62
67dcb0d77fba7c5360619dc4,394577,315,"Eureka, CA",msa,CA,Eureka,40.7906871,-124.1673746,,,,,,,,1373.79,1429.58,1521.82,1533.97
67dcb0d77fba7c5360619dc5,395117,316,"Springfield, OH",msa,OH,Springfield,39.9234046,-83.810138,,,,,,,,835.74,921.54,1022.67,1082.88
67dcb0d77fba7c5360619dc6,394668,317,"Harrisonburg, VA",msa,VA,Harrisonburg,38.4493315,-78.8688833,902.11,948.51,1006.71,1040.55,1075.01,1143.12,1242.54,1377.8,1495.69,1581.27,1685.46
67dcb0d77fba7c5360619dc7,394368,318,"Battle Creek, MI",msa,MI,Battle Creek,42.3192548,-85.1824269,,,,,,,,939.13,967.48,1019.15,1049.71
67dcb0d77fba7c5360619dc8,395094,319,"Sherman, TX",msa,TX,Sherman,33.6398609,-96.6089146,,,,,1113.98,1146.38,1270.75,1399.22,1454.26,1484.56,1490.74
67dcb0d77fba7c5360619dc9,394821,320,"Manhattan, KS",msa,KS,Manhattan,39.1836082,-96.5716694,852.44,844.45,844.42,849.88,849.28,858.8,888.07,932.53,963.88,1015.22,1049.73
67dcb0d77fba7c5360619dca,394442,321,"Carbondale, IL",msa,IL,Carbondale,37.7274692,-89.216655,,,599.19,607.28,618.91,648.37,674.77,720.74,771.34,812.74,838.4
67dcb0d77fba7c5360619dcb,394727,322,"Johnstown, PA",msa,PA,Johnstown,40.3267407,-78.9219698,,,,556.47,576.89,606.88,648.63,695.12,743.93,771.86,818.11
67dcb0d77fba7c5360619dcc,394728,323,"Jonesboro, AR",msa,AR,Jonesboro,35.8272257,-90.6949871,,918.28,931.01,941.41,968.7,997.88,1064.04,1117.27,1183.27,1230.67,1262.34
67dcb0d77fba7c5360619dcd,394390,324,"Bismarck, ND",msa,ND,Bismarck,46.808327,-100.783739,,,928.74,955.19,977.01,1001.76,1034.24,1062.26,1146.04,1219.92,1249.74
67dcb0d77fba7c5360619dce,394661,325,"Hammond, LA",msa,LA,Hammond,30.5043583,-90.4611995,,,,,,,1105.75,1178.12,1199.44,1241.36,1296.04
67dcb0d77fba7c5360619dcf,394983,326,"Pittsfield, MA",msa,MA,Pittsfield,42.4484778,-73.2541069,,,,,,,1305.71,1409.29,1551.37,1642.73,1671.94
67dcb0d77fba7c5360619dd0,394890,327,"Mount Vernon, WA",msa,WA,Mount Vernon,48.4200462,-122.32642,,,,1394.96,1453.31,1551.89,1736.65,1937.19,2007.97,2116.79,2103.31
67dcb0d77fba7c5360619dd1,394719,328,"Jamestown, NY",msa,NY,Jamestown,42.0965167,-79.2380322,,,,,,,,,,1025.64,1039.16
67dcb0d77fba7c5360619dd2,395153,329,"The Villages, FL",msa,FL,The Villages,28.9269978,-82.0041758,,,,,,,,1616.44,1734.65,1813.55,1854.6
67dcb0d77fba7c5360619dd3,394307,330,"Albany, OR",msa,OR,Albany,44.6365071,-123.1059324,,,,,,,1298.57,1476.46,1572.02,1626.76,1650.31
67dcb0d77fba7c5360619dd4,394780,332,"Lawton, OK",msa,OK,Lawton,34.6086854,-98.3903305,714.37,714.09,726.16,739.19,753.02,782.95,852.42,973.94,1027.05,1077.8,1101.8
67dcb0d77fba7c5360619dd5,394474,334,"Cleveland, TN",msa,TN,Cleveland,35.1595182,-84.8766115,,,,,,1063.54,1147.63,1315.64,1393.45,1424.29,1462.27
67dcb0d77fba7c5360619dd6,394824,337,"Mansfield, OH",msa,OH,Mansfield,40.75839,-82.5154471,,,,,,,,,814.92,899.01,909.07
67dcb0d77fba7c5360619dd7,394325,336,"Ames, IA",msa,IA,Ames,42.0267567,-93.6170448,,,885.23,871.54,883.37,898.94,930.7,973.69,1014.06,1069.74,1083.97
67dcb0d77fba7c5360619dd8,395098,335,"Sierra Vista, AZ",msa,AZ,Sierra Vista,31.5545973,-110.2997756,,,,,,,,1265.09,1328.39,1377.02,1358.95
67dcb0d77fba7c5360619dd9,395128,338,"Staunton, VA",msa,VA,Staunton,38.1495947,-79.072557,,,,934.0,970.21,1026.12,1119.29,1232.63,1311.9,1411.01,1427.71
67dcb0d77fba7c5360619dda,394353,339,"Augusta, ME",msa,ME,Augusta,44.3169922,-69.7734278,,751.65,765.52,811.29,863.63,927.15,1057.04,1182.55,1288.67,1372.63,1398.78
67dcb0d77fba7c5360619ddb,394321,340,"Altoona, PA",msa,PA,Altoona,40.5193586,-78.3968299,,,,,,,,,843.55,889.06,901.56
67dcb0d77fba7c5360619ddc,394905,341,"New Bern, NC",msa,NC,New Bern,35.1084931,-77.0441143,,,,,,,1155.93,1295.11,1365.82,1441.06,1518.21
67dcb0d77fba7c5360619ddd,394588,342,"Farmington, NM",msa,NM,Farmington,36.7291152,-108.205445,,,,,,,,,1036.61,1095.22,1152.05
67dcb0d77fba7c5360619dde,395120,343,"St. Joseph, MO",msa,MO,St. Joseph,39.7686055,-94.8466322,,,,,,,698.11,738.93,794.19,851.05,875.58
67dcb0d77fba7c5360619ddf,395054,344,"San Angelo, TX",msa,TX,San Angelo,31.4649685,-100.4405094,,,970.57,1002.96,1048.94,1079.78,1135.41,1205.73,1242.38,1279.26,1320.12
67dcb0d77fba7c5360619de0,395218,345,"Wenatchee, WA",msa,WA,Wenatchee,47.4234599,-120.310349,,,,,,,1497.09,1661.03,1698.11,1767.15,1799.57
67dcb0d77fba7c5360619de1,394949,346,"Owensboro, KY",msa,KY,Owensboro,37.7742152,-87.1133304,,,,,,,,,1208.6,1273.85,1354.72
67dcb0d77fba7c5360619de2,753890,347,"Holland, MI",msa,MI,Holland,42.7876022,-86.1090828,,,,,,,,,,,1411.7
67dcb0d77fba7c5360619de3,394810,348,"Lumberton, NC",msa,NC,Lumberton,34.6183305,-79.008205,,,,,,,,,,1005.79,997.32
67dcb0d77fba7c5360619de4,394778,349,"Lawrence, KS",msa,KS,Lawrence,38.9719137,-95.2359403,,949.37,954.17,985.88,1014.13,1059.18,1113.82,1206.51,1303.9,1403.08,1476.12
67dcb0d77fba7c5360619de5,395089,352,"Sheboygan, WI",msa,WI,Sheboygan,43.7508284,-87.71453,,,,,,,,832.31,893.01,958.99,989.15
67dcb0d77fba7c5360619de6,395213,351,"Watertown, NY",msa,NY,Watertown,43.9747838,-75.9107565,,,,,,,,1135.24,1192.19,1275.39,1290.02
67dcb0d77fba7c5360619de7,394635,350,"Goldsboro, NC",msa,NC,Goldsboro,35.3848841,-77.9927651,,,,,,,,,1252.52,1350.39,1367.13
67dcb0d77fba7c5360619de8,395217,353,"Weirton, WV",msa,OH,Weirton,40.4459003,-80.6264628,,,,,,,,717.9,727.88,764.09,781.1
67dcb0d77fba7c5360619de9,394867,354,"Missoula, MT",msa,MT,Missoula,46.8701049,-113.995267,724.39,749.79,778.25,796.34,836.11,893.31,1082.05,1215.67,1270.02,1309.04,1359.96
67dcb0d77fba7c5360619dea,395237,355,"Wooster, OH",msa,OH,Wooster,40.7980976,-81.9397733,,,,,,,,944.04,1000.24,1072.93,1146.66
67dcb0d77fba7c5360619deb,394407,356,"Bozeman, MT",msa,MT,Bozeman,45.6794293,-111.044047,,,,,,,1885.98,2132.0,2200.92,2232.88,2291.08
67dcb0d77fba7c5360619dec,394333,357,"Anniston, AL",msa,AL,Anniston,33.6624824,-85.8283224,,,,,,,,,942.2,988.98,1002.88
67dcb0d77fba7c5360619ded,394374,358,"Beckley, WV",msa,WV,Beckley,37.7781702,-81.1881557,,,,,,,,,,984.59,1060.76
67dcb0d77fba7c5360619dee,395225,359,"Williamsport, PA",msa,PA,Williamsport,41.2411556,-77.0011096,,,,,,,,,875.84,905.71,972.69
67dcb0d77fba7c5360619def,394423,360,"Brunswick, GA",msa,GA,Brunswick,31.1499528,-81.4914894,,,,,,,1584.23,1656.99,1748.88,1798.93,1820.32
67dcb0d77fba7c5360619df0,753872,361,"California, MD",msa,MD,California,38.2976295,-76.5081118,1135.32,1156.02,1185.69,1225.14,1257.86,1321.93,1474.81,1545.84,1618.55,1738.26,1808.6
67dcb0d77fba7c5360619df1,395173,361,"Twin Falls, ID",msa,ID,Twin Falls,42.5558542,-114.4700684,,,,,,,,1535.12,1595.88,1670.66,1682.23
67dcb0d77fba7c5360619df2,394495,363,"Cookeville, TN",msa,TN,Cookeville,36.1623886,-85.4997057,,,,,,,1092.06,1199.77,1279.61,1318.02,1349.6
67dcb0d77fba7c5360619df3,394893,364,"Muncie, IN",msa,IN,Muncie,40.1936892,-85.3865271,,,610.09,632.1,669.7,695.76,770.86,846.38,901.82,962.28,991.98
67dcb0d77fba7c5360619df4,394857,365,"Michigan City, IN",msa,IN,Michigan City,41.7075394,-86.8950297,,,,,,,,927.43,1007.47,1079.44,1116.9
67dcb0d77fba7c5360619df5,395039,366,"Roseburg, OR",msa,OR,Roseburg,43.216505,-123.3417381,,,,,,,,1170.07,1193.34,1252.81,1279.5
67dcb0d77fba7c5360619df6,394788,367,"Lewiston, ME",msa,ME,Lewiston,44.1004515,-70.2150294,,,,,,,,1190.83,1244.82,1353.79,1464.82
67dcb0d77fba7c5360619df7,394804,368,"Longview, WA",msa,WA,Longview,46.1377048,-122.934462,,,,,,,,1293.66,1339.38,1371.34,1402.03
67dcb0d77fba7c5360619df8,394734,370,"Kankakee, IL",msa,IL,Kankakee,41.1200325,-87.8611531,,,,,,,1016.79,1108.5,1193.59,1276.72,1333.64
67dcb0d77fba7c5360619df9,395095,372,"Show Low, AZ",msa,AZ,Show Low,34.2542084,-110.029832,,,,,,,,,,2011.44,2050.89
67dcb0d77fba7c5360619dfa,395023,373,"Richmond, KY",msa,KY,Richmond,37.7478572,-84.2946539,,,,,744.59,756.84,813.5,903.55,971.52,1026.15,1054.72
67dcb0d77fba7c5360619dfb,395168,374,"Tullahoma, TN",msa,TN,Tullahoma,35.3620235,-86.2094342,,,,,,,,1270.86,1365.42,1469.39,1512.19
67dcb0d77fba7c5360619dfc,395222,375,"Whitewater, WI",msa,WI,Whitewater,42.8339562,-88.7306517,,,,,,,1164.16,1263.03,1414.2,1566.47,1596.61
67dcb0d77fba7c5360619dfd,394709,376,"Ithaca, NY",msa,NY,Ithaca,42.4396039,-76.4968019,,,,,1444.33,1523.53,1605.39,1837.24,1925.48,2059.31,2068.45
67dcb0d77fba7c5360619dfe,394524,378,"Decatur, IL",msa,IL,Decatur,39.8454163,-88.9524151,,,,,,,,,869.11,964.14,1022.67
67dcb0d77fba7c5360619dff,394369,380,"Bay City, MI",msa,MI,Bay City,43.5944677,-83.8888648,,,,,,,,1200.7,1213.83,1295.38,1292.5
67dcb0d77fba7c5360619e00,394762,379,"LaGrange, GA",msa,GA,LaGrange,33.039291,-85.0313269,,,,,,,923.64,1024.0,1107.57,1184.23,1242.64
67dcb0d77fba7c5360619e01,394637,377,"Grand Forks, ND",msa,MN,Grand Forks,47.9317013,-97.0175792,,,882.36,864.3,871.99,895.08,916.32,954.64,998.76,1058.65,1110.85
67dcb0d77fba7c5360619e02,394599,381,"Fond du Lac, WI",msa,WI,Fond du Lac,43.7748763,-88.4458033,,,,,,,,810.71,888.1,953.89,1037.77
67dcb0d77fba7c5360619e03,394733,384,"Kalispell, MT",msa,MT,Kalispell,48.202158,-114.315321,,,,,,,,2181.24,2176.68,2223.57,2239.76
67dcb0d77fba7c5360619e04,394630,382,"Gettysburg, PA",msa,PA,Gettysburg,39.8308973,-77.231012,,,,,,,,,,,1251.61
67dcb0d77fba7c5360619e05,394823,386,"Mankato, MN",msa,MN,Mankato,44.1634663,-93.9993505,,,,,,,,1273.36,1317.15,1378.83,1428.38
67dcb0d77fba7c5360619e06,394794,387,"Lima, OH",msa,OH,Lima,40.7399785,-84.105006,,,,,,,,,,1120.84,1122.81
67dcb0d77fba7c5360619e07,395166,389,"Truckee, CA",msa,CA,Truckee,39.327962,-120.1832533,,,,,,,,2277.26,2377.12,2462.08,2627.54
67dcb0d77fba7c5360619e08,394518,385,"Danville, VA",msa,VA,Danville,36.5879877,-79.3916713,,,,,,,,,1125.01,1179.43,1216.36
67dcb0d77fba7c5360619e09,395080,390,"Sebring, FL",msa,FL,Sebring,27.4957453,-81.4410425,,,866.17,899.43,936.58,994.73,1139.66,1324.06,1438.02,1490.6,1514.4
67dcb0d77fba7c5360619e0a,394462,391,"Cheyenne, WY",msa,WY,Cheyenne,41.139981,-104.820246,934.75,958.82,967.91,986.61,1028.17,1073.44,1150.87,1234.32,1286.44,1343.05,1366.85
67dcb0d77fba7c5360619e0b,394689,392,"Hot Springs, AR",msa,AR,Hot Springs,34.5038393,-93.0552437,,,,,,,,1119.05,1206.79,1289.43,1314.88
67dcb0d77fba7c5360619e0c,395090,394,"Shelby, NC",msa,NC,Shelby,35.2923513,-81.5356463,,,,,,,,,1184.72,1229.18,1232.82
67dcb0d77fba7c5360619e0d,394542,396,"Dubuque, IA",msa,IA,Dubuque,42.5006243,-90.6647985,,,,,,,934.28,975.48,1043.89,1116.0,1117.05
67dcb0d77fba7c5360619e0e,394852,397,"Meridian, MS",msa,MS,Meridian,32.3643098,-88.703656,,,,,,,,,,1107.83,1196.66
67dcb0d77fba7c5360619e0f,753912,398,"Pinehurst, NC",msa,NC,Pinehurst,35.1951981,-79.4692796,1224.64,1220.34,1229.61,1271.14,1313.51,1378.78,1545.9,1742.86,1849.53,1926.28,1953.28
67dcb0d77fba7c5360619e10,395038,401,"Rome, GA",msa,GA,Rome,34.257038,-85.1646726,,,,,,,,1046.52,1101.81,1156.06,1173.25
67dcb0d77fba7c5360619e11,395190,400,"Victoria, TX",msa,TX,Victoria,28.7997547,-97.0064246,,,,,,,,1019.4,1036.97,1072.54,1096.04
67dcb0d77fba7c5360619e12,395086,402,"Sevierville, TN",msa,TN,Sevierville,35.8681455,-83.561835,,,,,,,,,1652.43,1736.33,1748.89
67dcb0d77fba7c5360619e13,394340,404,"Ashtabula, OH",msa,OH,Ashtabula,41.8647873,-80.7841284,,,,,,,,,,,795.0
67dcb0d77fba7c5360619e14,394311,406,"Albertville, AL",msa,AL,Albertville,34.2675937,-86.2088669,,,,,,,,,,,1536.69
67dcb0d77fba7c5360619e15,394882,403,"Moses Lake, WA",msa,WA,Moses Lake,47.1301417,-119.278077,,887.68,951.89,998.42,1043.54,1119.73,1224.38,1365.73,1486.21,1552.64,1561.43
67dcb0d77fba7c5360619e16,394441,405,"Cape Girardeau, MO",msa,MO,Cape Girardeau,37.3034933,-89.5230357,,,,,,,,896.15,934.54,984.82,1015.47
67dcb0d77fba7c5360619e17,394513,409,"Cumberland, MD",msa,MD,Cumberland,39.6526498,-78.762383,,,,,,,,,864.43,963.3,980.61
67dcb0d77fba7c5360619e18,394928,410,"Ocean City, NJ",msa,NJ,Ocean City,39.2776156,-74.5746001,,,,,,,,,,,2495.69
67dcb0d77fba7c5360619e19,394505,411,"Corvallis, OR",msa,OR,Corvallis,44.5645659,-123.2620435,,1251.81,1308.24,1365.53,1416.5,1447.41,1543.75,1743.39,1893.78,2006.94,2033.67
67dcb0d77fba7c5360619e1a,394580,407,"Fairbanks, AK",msa,AK,Fairbanks,64.837845,-147.716675,,,,,,,1489.76,1592.52,1685.77,1740.85,1783.25
67dcb0d77fba7c5360619e1b,395140,415,"Sunbury, PA",msa,PA,Sunbury,40.8619754,-76.7936252,,,,,,,,,,834.24,931.26
67dcb0d77fba7c5360619e1c,394911,414,"New Philadelphia, OH",msa,OH,New Philadelphia,40.4897871,-81.4456706,,,,,,,,,,,875.0
67dcb0d77fba7c5360619e1d,394373,420,"Beaver Dam, WI",msa,WI,Beaver Dam,43.4577692,-88.837329,,,,,,,,,,975.76,1016.23
67dcb0d77fba7c5360619e1e,394641,422,"Grants Pass, OR",msa,OR,Grants Pass,42.4393707,-123.3272489,,,,,,,,,1556.78,1623.19,1636.39
67dcb0d77fba7c5360619e1f,394511,424,"Cullman, AL",msa,AL,Cullman,34.1748408,-86.8435802,,,,,,,,,,,1495.0
67dcb0d77fba7c5360619e20,395248,426,"Zanesville, OH",msa,OH,Zanesville,39.9401426,-82.005019,,,,,,,,,984.16,1023.94,1069.88
67dcb0d77fba7c5360619e21,394907,427,"New Castle, PA",msa,PA,New Castle,40.9999202,-80.3471856,,,,,,,,,793.55,830.86,883.55
67dcb0d77fba7c5360619e22,395212,430,"Watertown, WI",msa,WI,Watertown,43.194335,-88.7241822,,,,,,,,904.1,985.66,1039.67,1061.49
67dcb0d77fba7c5360619e23,753887,417,"Hermiston, OR",msa,OR,Hermiston,45.8404101,-119.28946,,,,,,,,1169.88,1210.01,1288.82,1334.4
67dcb0d77fba7c5360619e24,394501,413,"Corning, NY",msa,NY,Corning,42.1435257,-77.0543408,,,,,,,,,,1365.96,1413.62
67dcb0d77fba7c5360619e25,394988,412,"Pocatello, ID",msa,ID,Pocatello,42.8620287,-112.450627,,,,,,,,999.13,1041.13,1080.4,1110.12
67dcb0d77fba7c5360619e26,394925,428,"Oak Harbor, WA",msa,WA,Oak Harbor,48.2931559,-122.643224,876.29,1001.2,1111.93,1172.34,1217.46,1267.22,1391.85,1514.56,1630.32,1707.26,1770.44
67dcb0d77fba7c5360619e27,394568,432,"Elmira, NY",msa,NY,Elmira,42.0897965,-76.8077338,,,,,,,,,,1011.56,1102.35
67dcb0d77fba7c5360619e28,394469,418,"Clarksburg, WV",msa,WV,Clarksburg,39.2806451,-80.3445341,,,,,,,914.27,957.64,1021.37,1066.81,1070.84
67dcb0d77fba7c5360619e29,395175,416,"Ukiah, CA",msa,CA,Ukiah,39.1501662,-123.2077861,,,,,,,,,,1973.15,2012.94
67dcb0d77fba7c5360619e2a,395042,435,"Russellville, AR",msa,AR,Russellville,35.2784173,-93.1337856,,,,,,,,,908.96,981.56,995.83
67dcb0d77fba7c5360619e2b,394964,419,"Parkersburg, WV",msa,WV,Parkersburg,39.2667309,-81.5620755,,,,,,,,,,891.93,890.62
67dcb0d77fba7c5360619e2c,394644,433,"Great Falls, MT",msa,MT,Great Falls,47.5048851,-111.29189,,,811.78,827.65,850.89,878.54,1002.3,1166.3,1240.85,1306.6,1357.75
67dcb0d77fba7c5360619e2d,394859,437,"Midland, MI",msa,MI,Midland,43.6155825,-84.2472117,,,,,,,,1233.72,1283.69,1368.88,1425.72
67dcb0d77fba7c5360619e2e,394675,441,"Helena, MT",msa,MT,Helena,46.5927425,-112.036277,,,,,,,,,1316.59,1415.91,1517.67
67dcb0d77fba7c5360619e2f,394395,439,"Bloomsburg, PA",msa,PA,Bloomsburg,41.0044958,-76.4537302,,,,,,967.18,986.85,1076.66,1139.63,1203.25,1318.28
67dcb0d77fba7c5360619e30,395145,443,"Talladega, AL",msa,AL,Talladega,33.4332833,-86.098631,,,,,,,,,1091.13,1143.75,1178.05
67dcb0d77fba7c5360619e31,394755,438,"Kokomo, IN",msa,IN,Kokomo,40.4864444,-86.1336351,,,605.58,616.78,637.79,669.96,714.18,804.58,867.08,997.41,1066.73
67dcb0d77fba7c5360619e32,394744,442,"Key West, FL",msa,FL,Key West,24.5548262,-81.8020722,,,2237.82,2286.29,2383.4,2450.87,2836.44,3387.51,3552.12,3647.02,3605.63
67dcb0d77fba7c5360619e33,395133,444,"Stillwater, OK",msa,OK,Stillwater,36.1156306,-97.0585717,,,,,,999.2,1029.72,1128.5,1202.66,1266.93,1322.52
67dcb0d77fba7c5360619e34,394345,446,"Athens, TX",msa,TX,Athens,32.2044416,-95.854914,,,,,,,,1405.57,1409.04,1464.43,1469.53
67dcb0d77fba7c5360619e35,394822,448,"Manitowoc, WI",msa,WI,Manitowoc,44.0886059,-87.6575841,,,,,,,,,,1004.68,1045.81
67dcb0d77fba7c5360619e36,394489,445,"Columbus, IN",msa,IN,Columbus,39.2014405,-85.9213796,,,,946.13,974.8,989.66,1055.26,1169.81,1224.22,1287.47,1331.71
67dcb0d77fba7c5360619e37,394452,447,"Centralia, WA",msa,WA,Centralia,46.7204489,-122.96143,,,,,,,,,1332.66,1394.66,1463.49
67dcb0d77fba7c5360619e38,394682,449,"Hinesville, GA",msa,GA,Hinesville,31.8477347,-81.5960705,908.58,916.49,934.14,953.88,985.24,1034.0,1195.07,1415.7,1477.2,1581.57,1626.81
67dcb0d77fba7c5360619e39,395205,451,"Warsaw, IN",msa,IN,Warsaw,41.2381017,-85.8530544,,,,,,,,1182.75,1229.17,1269.23,1329.93
67dcb0d77fba7c5360619e3a,395126,453,"Statesboro, GA",msa,GA,Statesboro,32.4490141,-81.7832912,,,,,,,1159.67,1261.94,1412.7,1542.93,1602.81
67dcb0d77fba7c5360619e3b,394445,454,"Casper, WY",msa,WY,Casper,42.8501191,-106.325138,955.76,910.41,871.01,884.17,932.75,959.4,995.18,1081.14,1149.64,1224.38,1261.33
67dcb0d77fba7c5360619e3c,395231,455,"Wilson, NC",msa,NC,Wilson,35.7241718,-77.9115243,,,,,,,,,1014.53,1080.65,1107.58
67dcb0d77fba7c5360619e3d,753881,456,"Glenwood Springs, CO",msa,CO,Glenwood Springs,39.5466381,-107.3246941,,1933.34,2115.77,2289.66,2467.31,2665.21,3136.46,3951.25,4336.69,4580.47,4652.25
67dcb0d77fba7c5360619e3e,395085,457,"Seneca, SC",msa,SC,Seneca,34.6865321,-82.9527288,,,,,,,,1382.61,1454.23,1570.37,1617.28
67dcb0d77fba7c5360619e3f,394866,458,"Minot, ND",msa,ND,Minot,48.23251,-101.296273,,,,,,787.67,793.63,822.11,877.59,910.67,942.26
67dcb0d77fba7c5360619e40,394936,459,"Olean, NY",msa,NY,Olean,42.0775022,-78.4298248,,,,,,,,,,,957.58
67dcb0d77fba7c5360619e41,394350,464,"Auburn, NY",msa,NY,Auburn,42.9320202,-76.5672029,,,,,,,,,,1341.31,1356.42
67dcb0d77fba7c5360619e42,395077,461,"Searcy, AR",msa,AR,Searcy,35.2506406,-91.7362488,,,,,,,,,,970.91,1024.22
67dcb0d77fba7c5360619e43,394738,466,"Keene, NH",msa,NH,Keene,42.933597,-72.2784264,,,,,,,,1420.64,1512.75,1598.86,1634.44
67dcb0d77fba7c5360619e44,394674,467,"Heber, UT",msa,UT,Heber,40.506463,-111.4132963,,,,,2153.7,2327.93,2802.66,3180.43,3206.63,3311.75,3362.44
67dcb0d77fba7c5360619e45,394699,465,"Huntsville, TX",msa,TX,Huntsville,30.7235263,-95.5507771,,,,,,,,1213.52,1237.74,1293.85,1366.47
67dcb0d77fba7c5360619e46,395062,469,"Sandusky, OH",msa,OH,Sandusky,41.4561002,-82.7115813,,,,,,,,,,,1654.7
67dcb0d77fba7c5360619e47,395010,468,"Quincy, IL",msa,IL,Quincy,39.9356016,-91.4098727,,,,,,,,,,874.99,890.79
67dcb0d77fba7c5360619e48,394593,470,"Findlay, OH",msa,OH,Findlay,41.0413873,-83.6503982,,,,,,,,1007.56,1047.06,1152.42,1202.41
67dcb0d77fba7c5360619e49,394614,471,"Frankfort, KY",msa,KY,Frankfort,38.2009055,-84.8732836,,,606.33,608.03,638.16,681.78,753.65,823.19,896.5,947.51,981.39
67dcb0d77fba7c5360619e4a,753928,476,"Wisconsin Rapids, WI",msa,WI,Wisconsin Rapids,44.3917589,-89.8228767,,,,,,,,,,,1347.5
67dcb0d77fba7c5360619e4b,753893,477,"Jefferson, GA",msa,GA,Jefferson,34.1170537,-83.5723876,,,,,,,,1760.8,1855.05,1912.24,1891.28
67dcb0d77fba7c5360619e4c,394516,472,"Danville, IL",msa,IL,Danville,40.125222,-87.6304614,,,,,,,,583.64,608.12,703.67,752.76
67dcb0d77fba7c5360619e4d,394298,473,"Aberdeen, WA",msa,WA,Aberdeen,46.975371,-123.815722,,,,,,,,1215.32,1283.13,1336.36,1330.76
67dcb0d77fba7c5360619e4e,394736,478,"Kapaa, HI",msa,HI,Kapaa,22.0747334,-159.3191601,,,,,,,,,,,4200.0
67dcb0d77fba7c5360619e4f,394955,479,"Palatka, FL",msa,FL,Palatka,29.6487882,-81.6372111,,,,,,,,,1152.28,1197.34,1292.86
67dcb0d77fba7c5360619e50,394683,481,"Hobbs, NM",msa,NM,Hobbs,32.707667,-103.1311314,,,,,,,,,,1096.59,1112.84
67dcb0d77fba7c5360619e51,394647,486,"Greeneville, TN",msa,TN,Greeneville,36.1631575,-82.8309861,,,,,,,,,,,1340.66
67dcb0d77fba7c5360619e52,395088,482,"Shawnee, OK",msa,OK,Shawnee,35.3272928,-96.9253004,,,,,,,,,964.87,1005.09,1023.57
67dcb0d77fba7c5360619e53,395132,485,"Stevens Point, WI",msa,WI,Stevens Point,44.5234467,-89.5844457,,,,,,,,1151.18,1228.77,1304.14,1341.14
67dcb0d77fba7c5360619e54,394655,488,"Greenwood, SC",msa,SC,Greenwood,34.1954001,-82.1617883,,,,,,,,,,778.32,890.59
67dcb0d77fba7c5360619e55,394877,491,"Morehead City, NC",msa,NC,Morehead City,34.7229391,-76.7260436,,,,,,,1554.21,1602.48,1771.59,1892.52,1952.21
67dcb0d77fba7c5360619e56,394752,490,"Klamath Falls, OR",msa,OR,Klamath Falls,42.224867,-121.78167,,,,,,,,,1115.59,1129.83,1191.23
67dcb0d77fba7c5360619e57,394764,489,"Lake City, FL",msa,FL,Lake City,30.1894252,-82.6394803,,,,,,,,,1351.64,1412.46,1468.65
67dcb0d77fba7c5360619e58,394472,492,"Clearlake, CA",msa,CA,Clearlake,38.9582307,-122.626372,,,,,,,,1510.73,1593.62,1667.64,1755.21
67dcb0d77fba7c5360619e59,394305,493,"Alamogordo, NM",msa,NM,Alamogordo,32.8998822,-105.9602081,,,,,,,,1355.76,1391.16,1441.86,1485.46
67dcb0d77fba7c5360619e5a,394586,498,"Faribault, MN",msa,MN,Faribault,44.2949637,-93.268827,,,,,,,,,,1575.02,1611.32
67dcb0d77fba7c5360619e5b,394897,496,"Muskogee, OK",msa,OK,Muskogee,35.7478769,-95.3696909,,,,,,,,769.43,813.68,871.31,937.26
67dcb0d77fba7c5360619e5c,394885,502,"Mount Pleasant, MI",msa,MI,Mount Pleasant,43.597646,-84.7668495,,,,,,,,,780.39,885.38,881.67
67dcb0d77fba7c5360619e5d,395016,506,"Red Bluff, CA",msa,CA,Red Bluff,40.1784279,-122.235923,,,,,,,,,,1465.92,1519.75
67dcb0d77fba7c5360619e5e,394829,500,"Marquette, MI",msa,MI,Marquette,46.5434914,-87.396433,,,,,,,,,1100.11,1249.96,1305.74
67dcb0d77fba7c5360619e5f,395021,499,"Richmond, IN",msa,IN,Richmond,39.8286897,-84.8898521,,,,,,,,729.42,751.41,799.02,840.03
67dcb0d77fba7c5360619e60,395105,513,"Somerset, KY",msa,KY,Somerset,37.0920222,-84.6041084,,,,,,,,,,,1037.0
67dcb0d77fba7c5360619e61,394600,515,"Forest City, NC",msa,NC,Forest City,35.3337279,-81.8649245,,,,,,,,,,,950.0
67dcb0d77fba7c5360619e62,394899,512,"Nacogdoches, TX",msa,TX,Nacogdoches,31.6037322,-94.6559702,,,,,,,,,,1083.58,1100.13
67dcb0d77fba7c5360619e63,394496,514,"Coos Bay, OR",msa,OR,Coos Bay,43.3678937,-124.2174647,,,,,,,,,,,1621.25
67dcb0d77fba7c5360619e64,395092,510,"Shelton, WA",msa,WA,Shelton,47.2150945,-123.100706,,,,,,,,,,1600.07,1684.7
67dcb0d77fba7c5360619e65,394787,518,"Lewiston, ID",msa,ID,Lewiston,46.4195913,-117.0216144,,,,,,,,,,,1176.98
67dcb0d77fba7c5360619e66,394360,505,"Baraboo, WI",msa,WI,Baraboo,43.4704014,-89.7437844,,,,,,,,,,1135.58,1177.8
67dcb0d77fba7c5360619e67,845163,508,"Jasper, AL",msa,AL,Jasper,33.8312185,-87.2775053,,,,,,,,,1271.0,1365.54,1377.43
67dcb0d77fba7c5360619e68,394759,519,"Laconia, NH",msa,NH,Laconia,43.5278546,-71.470351,,,,,,,,,,1827.88,1820.39
67dcb0d77fba7c5360619e69,395020,517,"Rexburg, ID",msa,ID,Rexburg,43.8235163,-111.787022,,,,,,,888.72,1029.45,1060.82,1075.27,1079.91
67dcb0d77fba7c5360619e6a,395199,525,"Walla Walla, WA",msa,WA,Walla Walla,46.0667277,-118.339345,,,,,,,,1433.04,1527.8,1569.23,1606.34
67dcb0d77fba7c5360619e6b,395063,522,"Sanford, NC",msa,NC,Sanford,35.4798757,-79.1802994,,,,,,,,,1544.96,1645.74,1643.05
67dcb0d77fba7c5360619e6c,394309,526,"Albemarle, NC",msa,NC,Albemarle,35.3501426,-80.2000578,,,,,,,,,,1672.25,1679.84
67dcb0d77fba7c5360619e6d,394570,523,"Enid, OK",msa,OK,Enid,36.3967623,-97.8791341,,,,,,,,1075.4,1105.52,1144.34,1214.2
67dcb0d77fba7c5360619e6e,394701,527,"Hutchinson, KS",msa,KS,Hutchinson,38.0608444,-97.9297743,,,540.17,551.46,564.44,585.34,605.99,663.68,718.67,752.43,767.85
67dcb0d77fba7c5360619e6f,394693,528,"Hudson, NY",msa,NY,Hudson,42.2528649,-73.790959,,,,,,,,1795.78,1905.14,2089.63,2145.59
67dcb0d77fba7c5360619e70,394631,531,"Gillette, WY",msa,WY,Gillette,44.290635,-105.501876,,,,,,,,,1119.72,1205.25,1251.25
67dcb0d77fba7c5360619e71,394443,530,"Carlsbad, NM",msa,NM,Carlsbad,32.4257456,-104.237612,,,,,,,,,,2045.49,2035.0
67dcb0d77fba7c5360619e72,394509,534,"Crossville, TN",msa,TN,Crossville,35.949684,-85.0274835,,,,,,,,,,,1804.03
67dcb0d77fba7c5360619e73,845162,535,"Granbury, TX",msa,TX,Granbury,32.4426759,-97.7870525,,1018.17,1074.42,1128.06,1201.43,1240.86,1364.24,1519.7,1552.01,1628.89,1672.48
67dcb0d77fba7c5360619e74,394343,521,"Athens, OH",msa,OH,Athens,39.3289242,-82.1012479,,,,,,,,,888.1,973.87,1032.66
67dcb0d77fba7c5360619e75,394629,520,"Georgetown, SC",msa,SC,Georgetown,33.376834,-79.2944965,,,,,,,,,,2173.95,2188.82
67dcb0d77fba7c5360619e76,395124,529,"Starkville, MS",msa,MS,Starkville,33.4638745,-88.8152074,,,,,,,,,1336.21,1386.38,1427.71
67dcb0d77fba7c5360619e77,395049,537,"Salina, KS",msa,KS,Salina,38.8402805,-97.6114237,,,,,,,,,922.94,975.31,987.65
67dcb0d77fba7c5360619e78,394939,542,"Oneonta, NY",msa,NY,Oneonta,42.453492,-75.0629531,,,,,,,,,,1451.92,1439.8
67dcb0d77fba7c5360619e79,395071,536,"Sayre, PA",msa,PA,Sayre,41.9789631,-76.515499,,,,,,,,,,,900.0
67dcb0d77fba7c5360619e7a,753903,538,"Marietta, OH",msa,OH,Marietta,39.4167742,-81.4548392,,,,,,,,,,1208.11,1253.73
67dcb0d77fba7c5360619e7b,394336,546,"Ardmore, OK",msa,OK,Ardmore,34.1729273,-97.1309119,,,,,,,,,,1017.87,1049.63
67dcb0d77fba7c5360619e7c,394592,550,"Fernley, NV",msa,NV,Fernley,39.6075249,-119.2508406,,,,,,,1523.72,1611.08,1687.6,1761.62,1815.2
67dcb0d77fba7c5360619e7d,394490,543,"Columbus, MS",msa,MS,Columbus,33.4956744,-88.4272627,,,,,,,,,1272.6,1350.61,1404.02
67dcb0d77fba7c5360619e7e,394551,552,"Eagle Pass, TX",msa,TX,Eagle Pass,28.7083999,-100.503941,,,,,,,,,,1586.91,1613.38
67dcb0d77fba7c5360619e7f,394444,551,"Carson City, NV",msa,NV,Carson City,39.1663259,-119.7670374,,,,,,,,1607.57,1658.55,1727.17,1753.8
67dcb0d77fba7c5360619e80,753877,554,"Cullowhee, NC",msa,NC,Cullowhee,35.3137739,-83.1765814,,,,,,,,,1308.78,1280.63,1317.1
67dcb0d77fba7c5360619e81,394621,558,"Gaffney, SC",msa,SC,Gaffney,35.0717945,-81.6498195,,,,,,,,,,1105.43,1151.89
67dcb0d77fba7c5360619e82,394940,557,"Ontario, OR",msa,OR,Ontario,44.0265525,-116.9629378,,,,,,,,,,1158.7,1275.47
67dcb0d77fba7c5360619e83,394411,561,"Branson, MO",msa,MO,Branson,36.6440772,-93.2169256,,,,,,,,,1153.16,1211.69,1214.35
67dcb0d77fba7c5360619e84,394951,564,"Oxford, MS",msa,MS,Oxford,34.3663773,-89.5187664,,,,,,,1356.95,1395.91,1622.36,1885.89,2105.69
67dcb0d77fba7c5360619e85,394446,562,"Cedar City, UT",msa,UT,Cedar City,37.6774238,-113.061827,,,,,,,,1332.79,1340.83,1373.87,1352.04
67dcb0d77fba7c5360619e86,394556,566,"Edwards, CO",msa,CO,Edwards,44.3223535,-75.25194155182812,,,,,,,,,3124.29,3514.45,3645.08
67dcb0d77fba7c5360619e87,394547,567,"Durango, CO",msa,CO,Durango,37.2769484,-107.8766,,,,,,,1610.08,1802.11,1874.94,1939.5,1993.44
67dcb0d77fba7c5360619e88,394632,575,"Glasgow, KY",msa,KY,Glasgow,36.995906,-85.9124842,,,,,,,,,,,895.0
67dcb0d77fba7c5360619e89,395122,576,"St. Marys, GA",msa,GA,St. Marys,30.7305142,-81.5464928,,,,,,,,1403.65,1457.18,1520.22,1561.5
67dcb0d77fba7c5360619e8a,394566,573,"Elko, NV",msa,NV,Elko,40.83269,-115.7630942,,,,,,,,,,1539.87,1456.28
67dcb0d77fba7c5360619e8b,394402,577,"Boone, NC",msa,NC,Boone,36.2187873,-81.684004,,,,,,,,,1792.62,1750.54,1878.18
67dcb0d77fba7c5360619e8c,395204,578,"Warrensburg, MO",msa,MO,Warrensburg,38.7624373,-93.7409596,,,,731.95,758.15,785.98,846.38,911.76,970.75,1026.23,1051.57
67dcb0d77fba7c5360619e8d,394634,579,"Gloversville, NY",msa,NY,Gloversville,43.0508945,-74.3452991,,,,,,,,,,,1000.0
67dcb0d77fba7c5360619e8e,394604,580,"Fort Leonard Wood, MO",msa,MO,Fort Leonard Wood,37.701139999999995,-92.16933029454007,,,,,,,,,883.3,924.8,967.31
67dcb0d77fba7c5360619e8f,394562,582,"Elizabeth City, NC",msa,NC,Elizabeth City,36.3010192,-76.2203699,,,,,,,,1330.58,1403.92,1511.23,1593.73
67dcb0d77fba7c5360619e90,394344,584,"Athens, TN",msa,TN,Athens,35.4428864,-84.5930113,,,,,,,,,1084.37,1190.8,1213.79
67dcb0d77fba7c5360619e91,394339,586,"Ashland, OH",msa,OH,Ashland,40.8686147,-82.3175942,,,,,,,,,,867.18,901.14
67dcb0d77fba7c5360619e92,394571,585,"Enterprise, AL",msa,AL,Enterprise,31.3151708,-85.8552161,837.89,849.36,875.03,892.7,934.0,987.35,1110.3,1256.56,1332.56,1378.39,1436.91
67dcb0d77fba7c5360619e93,394742,589,"Kerrville, TX",msa,TX,Kerrville,30.048469,-99.1399464,,,,,,,,,1725.83,1763.44,1804.89
67dcb0d77fba7c5360619e94,394363,590,"Bartlesville, OK",msa,OK,Bartlesville,36.7421089,-95.9528877,,,,,,,,,1070.42,1137.21,1179.13
67dcb0d77fba7c5360619e95,394861,588,"Milledgeville, GA",msa,GA,Milledgeville,33.0801429,-83.2320991,,,,,,,,,,1281.78,1261.92
67dcb0d77fba7c5360619e96,394503,592,"Corsicana, TX",msa,TX,Corsicana,32.091299,-96.4646821,,,,,,,,,1110.85,1158.11,1231.45
67dcb0d77fba7c5360619e97,394717,599,"Jacksonville, TX",msa,TX,Jacksonville,31.963778,-95.2705042,,,,,,,,,,,1325.0
67dcb0d77fba7c5360619e98,394838,598,"Mason City, IA",msa,IA,Mason City,43.1524574,-93.2017941,,,,,,,,,,,912.5
67dcb0d77fba7c5360619e99,394954,601,"Pahrump, NV",msa,NV,Pahrump,36.2087301,-115.984614,,,,,,,,1284.3,1274.7,1371.4,1365.72
67dcb0d77fba7c5360619e9a,394478,615,"Clovis, NM",msa,NM,Clovis,34.405472,-103.2050709,,,,,,,,983.67,1041.35,1085.62,1090.87
67dcb0d77fba7c5360619e9b,753911,608,"Ozark, AL",msa,AL,Ozark,31.4584764,-85.6405865,,,,,,,,,949.02,1013.13,1109.87
67dcb0d77fba7c5360619e9c,394919,616,"Norfolk, NE",msa,NE,Norfolk,42.0283379,-97.4169964,,,,,,,,,,,935.16
67dcb0d77fba7c5360619e9d,395043,618,"Ruston, LA",msa,LA,Ruston,32.5297498,-92.6386604,,,,,,,800.31,841.04,883.01,905.57,911.23
67dcb0d77fba7c5360619e9e,395097,619,"Sidney, OH",msa,OH,Sidney,40.284241,-84.1555267,,,,,,,,,,,837.5
67dcb0d77fba7c5360619e9f,395234,603,"Winona, MN",msa,MN,Winona,44.0500054,-91.6392294,,,,,,,,1055.78,1077.44,1175.84,1196.01
67dcb0d77fba7c5360619ea0,395008,620,"Pullman, WA",msa,WA,Pullman,46.7304268,-117.173895,,,,,,,,1398.64,1502.96,1560.65,1574.86
67dcb0d77fba7c5360619ea1,753905,604,"Newport, OR",msa,OR,Newport,44.636755,-124.053442,,,,,,,,,,2210.55,2214.67
67dcb0d77fba7c5360619ea2,394628,610,"Gardnerville Ranchos, NV",msa,NV,Gardnerville Ranchos,38.8958109,-119.7419547,,,,,,,,,2136.65,2197.84,2283.04
67dcb0d77fba7c5360619ea3,394963,602,"Paris, TX",msa,TX,Paris,33.6617962,-95.555513,,,,,,,,,,1202.31,1208.9
67dcb0d77fba7c5360619ea4,394391,623,"Blackfoot, ID",msa,ID,Blackfoot,43.190039,-112.348357,,,,,,,,,,1158.32,1191.25
67dcb0d77fba7c5360619ea5,394437,612,"Ca-on City, CO",msa,CO,Ca-on City,38.739991,-106.187125,,,,,,,,,,,1426.21
67dcb0d77fba7c5360619ea6,394906,614,"New Castle, IN",msa,IN,New Castle,39.9289351,-85.3702477,,,,,,,,,,,818.68
67dcb0d77fba7c5360619ea7,395144,626,"Tahlequah, OK",msa,OK,Tahlequah,35.91537,-94.969956,,,,,,,,,,977.7,971.33
67dcb0d77fba7c5360619ea8,395017,624,"Red Wing, MN",msa,MN,Red Wing,44.5624676,-92.5338013,,,,,,,,,,,1259.03
67dcb0d77fba7c5360619ea9,394548,641,"Durant, OK",msa,OK,Durant,33.9919761,-96.3776762,,,,,,,,,,,1537.5
67dcb0d77fba7c5360619eaa,394876,628,"Montrose, CO",msa,CO,Montrose,38.4781927,-107.876277,,,,,,,,,1815.82,1934.04,1948.45
67dcb0d77fba7c5360619eab,394504,629,"Cortland, NY",msa,NY,Cortland,42.6011813,-76.1804843,,,,,,,,,1095.68,1231.47,1277.47
67dcb0d77fba7c5360619eac,394379,637,"Bemidji, MN",msa,MN,Bemidji,47.4785418,-94.8907869,,,,,,,,,,,1449.31
67dcb0d77fba7c5360619ead,394616,657,"Freeport, IL",msa,IL,Freeport,42.2966861,-89.6212271,,,,,,,,,,776.62,835.31
67dcb0d77fba7c5360619eae,394677,676,"Henderson, NC",msa,NC,Henderson,36.3273648,-78.4027265,,,,,,,,,,967.36,950.17
67dcb0d77fba7c5360619eaf,395032,678,"Rock Springs, WY",msa,WY,Rock Springs,41.5860557,-109.2194544,,,,,,751.68,794.02,915.26,966.73,987.91,1046.56
67dcb0d77fba7c5360619eb0,395129,680,"Stephenville, TX",msa,TX,Stephenville,32.2191836,-98.2130634,,,,,,,,,1178.39,1250.09,1326.77
67dcb0d77fba7c5360619eb1,394624,687,"Gainesville, TX",msa,TX,Gainesville,33.6258504,-97.1332963,,,,,,,,,,,1521.11
67dcb0d77fba7c5360619eb2,394850,651,"Menomonie, WI",msa,WI,Menomonie,44.8765289,-91.9278716,,,,,,,,,965.75,1012.22,1053.9
67dcb0d77fba7c5360619eb3,395037,659,"Rolla, MO",msa,MO,Rolla,37.9509324,-91.7708076,,,,,,,,,604.81,646.85,659.7
67dcb0d77fba7c5360619eb4,394384,697,"Big Rapids, MI",msa,MI,Big Rapids,43.698078,-85.483656,,,,,,,,,,1018.03,1092.16
67dcb0d77fba7c5360619eb5,394961,647,"Paragould, AR",msa,AR,Paragould,36.0584021,-90.4973286,,,,,,,,,,1085.95,1089.04
67dcb0d77fba7c5360619eb6,394567,663,"Ellensburg, WA",msa,WA,Ellensburg,46.9970635,-120.545122,,,,,,,,1757.01,1814.82,1880.22,1908.96
67dcb0d77fba7c5360619eb7,394354,698,"Austin, MN",msa,MN,Austin,43.6679992,-92.9746498,,,,,,,,,732.16,800.66,876.44
67dcb0d77fba7c5360619eb8,394833,696,"Marshalltown, IA",msa,IA,Marshalltown,42.048881,-92.9122672,,,,,,,,,,,1145.35
67dcb0d77fba7c5360619eb9,395026,705,"Riverton, WY",msa,WY,Riverton,43.0247245,-108.380727,,,,,,,,,,905.03,952.68
67dcb0d77fba7c5360619eba,394981,708,"Pittsburg, KS",msa,KS,Pittsburg,37.4108841,-94.70496,,,,,,,,,802.56,839.08,876.86
67dcb0d77fba7c5360619ebb,394881,703,"Moscow, ID",msa,ID,Moscow,46.7323875,-117.000165,,,,,,,,,,1040.59,1065.73
67dcb0d77fba7c5360619ebc,394842,666,"McAlester, OK",msa,OK,McAlester,34.9334981,-95.7697934,,,,,,,,,,,925.0
67dcb0d77fba7c5360619ebd,395155,646,"Thomasville, GA",msa,GA,Thomasville,30.8365815,-83.9787808,,,,,,,,,,1679.51,1726.99
67dcb0d77fba7c5360619ebe,394341,691,"Astoria, OR",msa,OR,Astoria,46.1882007,-123.8319802,,,,,,,,,1419.41,1465.23,1487.59
67dcb0d77fba7c5360619ebf,394715,719,"Jacksonville, IL",msa,IL,Jacksonville,39.7343697,-90.228782,,,,,,,,,,,900.0
67dcb0d77fba7c5360619ec0,395227,715,"Williston, ND",msa,ND,Williston,48.1465457,-103.621814,,,,,,831.01,851.56,914.35,1081.06,1244.5,1279.44
67dcb0d77fba7c5360619ec1,394545,673,"Duncan, OK",msa,OK,Duncan,34.5023029,-97.9578129,,,,,,,,,,,821.83
67dcb0d77fba7c5360619ec2,394300,720,"Ada, OK",msa,OK,Ada,34.7743383,-96.6783651,,,,,,,,829.61,870.77,931.91,954.22
67dcb0d77fba7c5360619ec3,394507,722,"Crawfordsville, IN",msa,IN,Crawfordsville,40.0408627,-86.8997385,,,,,,,,,,885.97,935.49
67dcb0d77fba7c5360619ec4,394799,727,"Lock Haven, PA",msa,PA,Lock Haven,41.1369077,-77.4471641,,,,,,,,,791.92,856.77,884.81
67dcb0d77fba7c5360619ec5,394554,729,"Easton, MD",msa,MD,Easton,38.7744625,-76.0763244,,,,,,,,,,,2183.33
67dcb0d77fba7c5360619ec6,394603,737,"Fort Dodge, IA",msa,IA,Fort Dodge,42.5044017,-94.1910044,,,,,,,,,,,782.99
67dcb0d77fba7c5360619ec7,394617,735,"Fremont, NE",msa,NE,Fremont,41.4338363,-96.4960449,,,,,,,,,,1155.04,1206.25
67dcb0d77fba7c5360619ec8,394771,733,"Laramie, WY",msa,WY,Laramie,41.3116442,-105.5917876,,,,,,,1015.39,1054.33,1139.53,1255.85,1304.09
67dcb0d77fba7c5360619ec9,394522,749,"DeRidder, LA",msa,LA,DeRidder,30.846201,-93.289281,,,,,,,,,,,1021.8
67dcb0d77fba7c5360619eca,394370,751,"Bay City, TX",msa,TX,Bay City,28.9827565,-95.969402,,,,,,,,,771.48,780.04,729.9
67dcb0d77fba7c5360619ecb,395187,760,"Vernal, UT",msa,UT,Vernal,40.4556825,-109.528474,,,,,,,,,,,1411.25
67dcb0d77fba7c5360619ecc,394920,752,"North Platte, NE",msa,NE,North Platte,41.1238873,-100.7654232,,,,,,,802.34,845.34,895.14,974.94,984.85
67dcb0d77fba7c5360619ecd,394413,759,"Brenham, TX",msa,TX,Brenham,30.1668828,-96.3977442,,,,,,,,,,1498.37,1507.78
67dcb0d77fba7c5360619ece,394569,767,"Emporia, KS",msa,KS,Emporia,38.4040054,-96.181623,,,,,,,,,,885.14,886.84
67dcb0d77fba7c5360619ecf,786252,761,"Bonham, TX",msa,TX,Bonham,33.5822077,-96.1785028,,,,,,,,,,,1419.31
67dcb0d77fba7c5360619ed0,394430,764,"Butte, MT",msa,MT,Butte,46.0131505,-112.536508,,,,,,,,,1045.21,1144.82,1175.65
67dcb0d77fba7c5360619ed1,394713,768,"Jackson, WY",msa,WY,Jackson,43.479965,-110.761815,,,,,,,,,,4671.74,5133.02
67dcb0d77fba7c5360619ed2,394385,770,"Big Spring, TX",msa,TX,Big Spring,32.250398,-101.4787356,,,,,,,,,,,1284.74
67dcb0d77fba7c5360619ed3,394491,780,"Columbus, NE",msa,NE,Columbus,41.4292988,-97.3581439,,,,,,,,,,,1670.0
67dcb0d77fba7c5360619ed4,394419,778,"Brookings, SD",msa,SD,Brookings,44.311461,-96.79844,,,,,,,,971.58,1011.1,1112.22,1157.36
67dcb0d77fba7c5360619ed5,786262,786,"Pella, IA",msa,IA,Pella,41.4073138,-92.9174074,,,,,,,,,,899.26,920.36
67dcb0d77fba7c5360619ed6,394414,792,"Brevard, NC",msa,NC,Brevard,35.2334472,-82.7342919,,,,,,,,,,,1912.5
67dcb0d77fba7c5360619ed7,394533,785,"Dickinson, ND",msa,ND,Dickinson,46.8791756,-102.7896242,,,,,,,,,,,1539.5
67dcb0d77fba7c5360619ed8,394613,790,"Frankfort, IN",msa,IN,Frankfort,40.2797657,-86.5108244,,,,,,,,,,,796.95
67dcb0d77fba7c5360619ed9,394749,809,"Kingsville, TX",msa,TX,Kingsville,27.5158689,-97.856109,,,,,,,,,,,1532.03
67dcb0d77fba7c5360619eda,394751,821,"Kirksville, MO",msa,MO,Kirksville,40.1948848,-92.5833939,,,,,,,,,695.34,709.56,752.88
67dcb0d77fba7c5360619edb,395093,815,"Sheridan, WY",msa,WY,Sheridan,44.797194,-106.956179,,,,,,,,,,,1150.0
67dcb0d77fba7c5360619edc,753871,811,"Breckenridge, CO",msa,CO,Breckenridge,39.4829124,-106.0465486,,,,,,,,,,3843.69,3817.82
67dcb0d77fba7c5360619edd,753926,831,"Weatherford, OK",msa,OK,Weatherford,35.5261633,-98.7075744,,,,,,,,,,,900.0
67dcb0d77fba7c5360619ede,394758,852,"La Grande, OR",msa,OR,La Grande,45.3246068,-118.0878695,,,,,,,,,,1294.8,1301.48
67dcb0d77fba7c5360619edf,845169,874,"Rockport, TX",msa,TX,Rockport,28.0205733,-97.0544341,,,,,,,,,,,1579.45
67dcb0d77fba7c5360619ee0,394615,847,"Fredericksburg, TX",msa,TX,Fredericksburg,30.2752011,-98.8719843,,,,,,,,,,2176.78,2164.11
67dcb0d77fba7c5360619ee1,753923,849,"The Dalles, OR",msa,OR,The Dalles,45.6015056,-121.1841587,,,,,,,,,,,1559.08
67dcb0d77fba7c5360619ee2,395198,882,"Wahpeton, ND",msa,ND,Wahpeton,46.265879,-96.608863,,,,,,,,,,,637.71
67dcb0d77fba7c5360619ee3,394996,915,"Portales, NM",msa,NM,Portales,34.1859636,-103.3373367,,,,,,,,,795.58,828.88,849.23
67dcb0d77fba7c5360619ee4,394687,875,"Hood River, OR",msa,OR,Hood River,45.7087902,-121.512372,,,,,,,,,,,2297.5
67dcb0d77fba7c5360619ee5,394643,857,"Great Bend, KS",msa,KS,Great Bend,38.3625063,-98.7804087,,,,,,,,,,,800.0
67dcb0d77fba7c5360619ee6,394342,929,"Atchison, KS",msa,KS,Atchison,39.5632392,-95.1199452,,,,,,,,,,,1025.0
67dcb0d77fba7c5360619ee7,394718,892,"Jamestown, ND",msa,ND,Jamestown,46.910544,-98.708436,,,,,,,,743.82,797.36,843.63,866.44
67dcb0d77fba7c5360619ee8,394805,916,"Los Alamos, NM",msa,NM,Los Alamos,35.88137,-106.298959,,,,,,,,,,2631.33,2693.18
67dcb0d77fba7c5360619ee9,394892,832,"Mountain Home, ID",msa,ID,Mountain Home,43.1329504,-115.691197,,,,,,,,,,1412.06,1413.05
67dcb0d77fba7c5360619eea,395130,890,"Sterling, CO",msa,CO,Sterling,40.6255415,-103.207709,,,,,,,,,,,975.0
67dcb0d77fba7c5360619eeb,786253,921,"Brownsville, TN",msa,TN,Brownsville,35.5939671,-89.262291,,,,,,,,,,,962.5
67dcb0d77fba7c5360619eec,394584,863,"Fallon, NV",msa,NV,Fallon,39.4745166,-118.777895,,,,,,,,,,,1562.5
67dcb0d77fba7c5360619eed,753921,867,"Steamboat Springs, CO",msa,CO,Steamboat Springs,40.4848003,-106.831735,,,,,,,,,,,2983.33
67dcb0d77fba7c5360619eee,753880,930,"Fairfield, IA",msa,IA,Fairfield,41.0072342,-91.9630039,,,,,,,,,,,986.14
